restaurant_id,restaurant_name,restaurant_rate,restaurant_telephone,restaurant_category,restaurant_typecode,restaurant_avg_price,restaurant_text_position,lng_wgs84,lat_wgs84
B0FFLKPCS5,喜食江南·中式料理研究所,4.5,15558882885;18658886664,综合酒楼,50101,158,金石街88号瑞利大厦停车场西北角,120.11617354136527,30.282561041484136
B0GK0CB6PU,清真燕兰人家.西北菜.团建聚餐(太子湾店),4.5,15120535853;19157765692,综合酒楼,50101,84,赤山苑8号赤山埠停车场边(免费停车到了门口打电话),120.13274498884097,30.226409217822756
B0FFFCMNAP,蒋村酒楼(河渚街),4.5,0571-88965703;15067181837,综合酒楼,50101,80,西溪国家湿地公园河渚街C1-21,120.06662815108069,30.275144141363317
B0I0MY3VDO,元茂福楼(西溪·栖悦城店),4.4,0571-88866996,综合酒楼,50101,,紫金港路21号西溪·栖悦城B1层,120.08499330310295,30.266950401924642
B0G277FHLX,老八家益乐店,4.0,0571-88237257,综合酒楼,50101,71,文一西路75号,120.10930190151016,30.28839103225681
B0KRH9U8W1,辣东家(象山大厦店),4.6,0571-88067111;18958126646,综合酒楼,50101,64,美院南街89号象山大厦F1层,120.07377040833373,30.15149789060534
B023B08QQ9,名人名家·浙菜(文二店),4.6,0571-88060008;0571-88060009,综合酒楼,50101,110,文二路38号文华景澜大酒店5楼(代客泊车),120.14023735463823,30.28624260305618
B0L2BPIK6R,龙吟阁(黄龙饭店中餐厅),4.6,0571-87998833,综合酒楼,50101,458,曙光路120号(黄龙洞地铁站A2口步行90米),120.13833272710055,30.2691112668345
B023B09325,楼外楼(杭州西湖风景名胜区店),4.6,0571-87969023;19157652805,综合酒楼,50101,155,西湖街道孤山路30号(近平湖秋月),120.13599101495286,30.25251610152323
B023B0AD1Z,食为鲜(茅家埠店),4.3,0571-87962886;13355718111,综合酒楼,50101,101,上茅家埠205号,120.11272665521206,30.241826644579735
B0FFGYSP84,天禧·西溪酒家(西溪店),4.5,0571-87788693,综合酒楼,50101,87,文二西路669号2楼202,120.0831412364892,30.28261767921732
B0FFHP7T1X,313羊庄(杭州首店锋尚路店),4.6,0571-87656313;15384003941,综合酒楼,50101,91,锋尚路15号(老头儿油爆虾南行100米),120.08751376084174,30.276559698698904
B023B09VIP,新天禧大酒店(西湖店),4.6,0571-87352006;0571-87352007,综合酒楼,50101,164,文三西路118号天禧大酒店4楼(大厦内设有停车场),120.11053772267837,30.279143817135093
B023B13YDH,君庭大酒楼,3.2,0571-87170000;15267217711,综合酒楼,50101,114,申花路789号龙申综合发展中心(剑桥公社)D、E楼三层,120.09048798760458,30.308183679663312
B0FFJIURCV,全悦家宴,4.5,0571-86502222,综合酒楼,50101,115,古墩路995号(三墩地铁站C口步行220米),120.08835050106336,30.320581503092058
B0G1G9PI36,陇上花开,3.9,0571-86061577;18657169883,综合酒楼,50101,,转塘街道龙坞茶镇上城埭路南189号,120.02842863168765,30.175164235266568
B0FFHUMJ1O,浙桢酒楼,4.5,0571-81956777;15221357739,综合酒楼,50101,92,三墩镇石祥西路859号紫金创业园1号楼欧亚美国际大酒店二楼,120.06960790059952,30.3101659511665
B0J1ZM7GFD,水晶嵊宴中餐厅,3.6,0571-81670988;15258806326,综合酒楼,50101,146,古墩路671号浙大圆正启真水晶酒店5楼,120.09185537392112,30.30406303256775
B023B17GC5,大东北奥星餐厅(颐高广场店),4.5,0571-56775266;0571-88068975;15168466767,综合酒楼,50101,65,黄姑山路19号,120.12857259397715,30.27706946383163
B023B092NX,知味观(文苑路点心分店),4.6,0571-56758035;15268100770,综合酒楼,50101,30,文三西路253号(五联地铁站E口步行240米),120.0980094066284,30.277975228103152
B0FFGFRBP2,知味观(紫荆花路点心分店),4.5,0571-56758029,综合酒楼,50101,42,紫荆花路386号紫荆大厦104室,120.08836284279352,30.293228776012793
B0IBU7Q49U,杭州雲栖里·民国餐厅(云栖竹径景区店),4.5,18969118198,综合酒楼,50101,130,梅灵南路8号云栖竹径(东北角),120.0894238143964,30.195825963268735
B0FFF9Y50V,礼耕堂(梅家坞店),4.5,18958000006,综合酒楼,50101,108,梅灵南路梅家坞203号(近龙井虎跑),120.0838959433785,30.207118068546052
B023B13YGD,马灯部落-杭帮创意菜(杭州西湖虎跑店),4.7,18957158529,综合酒楼,50101,100,虎跑路四眼井238号,120.1334253405782,30.2186596686782
B0JAZ6LFLG,火日粒三头一掌·衢州菜(西溪店),4.6,18757121757,综合酒楼,50101,86,蒋村街道晴川街425号1号楼101室,120.05761977055678,30.28530668456625
B0JGP7IS79,兼烤关自助烤肉火锅,3.3,18006715566,综合酒楼,50101,,留下街道留和路546-2楼,120.0141081238573,30.212681017443977
B0J26ZOSA7,方中山胡辣汤(杭州首店)清真,4.6,17737505733,综合酒楼,50101,24,翠苑街道文二路338号,120.11991475935089,30.284992452757262
B0JDYLZK0Z,新疆祖传烧烤王(浙大堕落街店),4.1,17690940626,综合酒楼,50101,56,紫荆花北路望月公寓85号商铺,120.08629998896397,30.313088016599302
B0H3JR7B6O,碧桃小馆·半坡花园(暂停营业),4.7,17306819116,综合酒楼,50101,134,四眼井268号,120.133203778917,30.21874134503179
B0FFHWSJAL,东北饺子(卸紫家园北区店),3.6,15824452871,综合酒楼,50101,23,灯彩街349-351号,120.07368150156262,30.326605851060762
B0J1YDMRGZ,松花江上·东北小馆(三深国际中心店),4.5,15336522238,综合酒楼,50101,64,双龙街99号三深国际下沉广场-步行楼梯入口位于三深星巴克侧面,120.07018509864479,30.293887229591498
B0JGS5K5NJ,重庆鸡公煲(灯彩街店),4.0,15205648182,综合酒楼,50101,38,灯彩街347号,120.07372449799097,30.326577816809994
B0FFHWUL6O,喜洋洋烤肉烤羊腿老北京火锅(同仁店),4.5,13777496233,综合酒楼,50101,94,三墩镇同仁商业区D区123号,120.07379430456487,30.32872946146902
B0FFLGSOX2,灼悦,4.3,13758209603,综合酒楼,50101,73,屏新路18号520新天地科技产业园1号楼东门,120.04302007109169,30.22909073721555
B0FFHLM3SE,三千西子,4.5,13666666336,综合酒楼,50101,325,省府路9-1号(武林门地铁站C口步行440米),120.15016553880221,30.26799314139378
B0FFHO9XQJ,郭记烤鱼馆文三西路店,4.5,13666618623,综合酒楼,50101,78,文三西路398号,120.10062439471899,30.27845883916395
B023B07JCR,仙妮面馆家常菜,3.4,13588066754,综合酒楼,50101,47,古墩路1109号,120.08592659766937,30.327194299897553
B0JA3MW2JO,老男孩鹤岗小串(剑桥公社D座店),4.5,13115488950,综合酒楼,50101,62,剑桥公社D座4幢8号,120.08990459766606,30.307915795901597
B0FFF4RN7J,夕佳楼,4.3,,综合酒楼,50101,60,西湖街道龙井路1号杭州西湖风景名胜区,120.10997917359903,30.22752960619772
B0JA1NFMX4,福记酒楼(晴川大厦店),4.2,,综合酒楼,50101,70,晴川街425号晴川大厦F2层,120.05689646134475,30.285307841205924
B0JA29AGSZ,太和酒楼,3.9,,综合酒楼,50101,69,之江路148号杭州宋城,120.09407339453398,30.173051556214773
B0JDARW4YZ,佬街佬味(古墩路店),3.9,,综合酒楼,50101,41,古墩路369号金田花园(五联地铁站E口步行230米),120.09537654239126,30.279735686462555
B0JR47BTWZ,寻味堂(上城埭路店),3.6,,综合酒楼,50101,,转塘街道龙坞上城埭路北48号,120.03038636792256,30.17779610290527
B0FFHOJQPG,衢州小炒(之江家园店),3.6,,综合酒楼,50101,,美院南街89号象山大厦F1层,120.07369841559738,30.151528953391274
B0IA3XKTB9,重庆鸡公煲(中茵大厦店),4.4,15990042558;18868792133,四川菜(川菜),50102,46,文三路451中茵大厦B1层,120.12244861692997,30.278793823002587
B0FFHHKOD1,渝香小厨,4.4,13735808655;18656581683,四川菜(川菜),50102,63,宝石山下二弄2-6号1幢,120.14731178790866,30.263462559034075
B0FFFDT0PS,重庆鸡公煲(石马社区店),4.5,13721293150;13777571135,四川菜(川菜),50102,40,石马新村公寓楼1幢1单元101室,120.01852964558597,30.21129944700638
B0JAPUXJJ1,渝味江湖(德萃公寓店),4.1,13635327063;15736327075,四川菜(川菜),50102,65,萃紫街39号,120.06978666063308,30.31225650352574
B0K0OHN70F,渝侯爷·山城大排档(西溪天街店),4.5,13396517748;17601212902,四川菜(川菜),50102,66,龙湖西溪天街9号楼113-114,120.0630185129102,30.295768622285895
B0LKHCR1DU,九九豆花馆·川味家常菜(杭州首店),4.3,0571-88315913,四川菜(川菜),50102,60,双龙街239号西投创智中心F1层,120.06187748436452,30.293815413190696
B0H1O1XQGQ,重庆来条鱼肥肠鱼(万塘汇店),4.4,0571-87977097;0571-88560866;15968193998,四川菜(川菜),50102,97,万塘路262号万塘汇广场F1层,120.11995518845453,30.28090990867873
B0H6CR03PQ,新沸腾鱼乡(黄姑山路店),4.7,0571-87918777,四川菜(川菜),50102,135,黄姑山路3号3层,120.12888747875438,30.275417037495355
B0FFGHBLPP,入蜀·川味泡菜馆(塘苗路店),4.6,0571-87337991,四川菜(川菜),50102,81,塘苗路2号,120.11800762312129,30.276534370709197
B0FFJCVCL1,川娃子川菜馆(万塘路店),4.5,0571-85390887,四川菜(川菜),50102,74,万塘路262号烟火万塘生活广场F1层,120.12034395667465,30.281322275638754
B0FFFD8N8Z,川味泡菜馆(黄姑山路店),4.7,0571-56776566,四川菜(川菜),50102,69,黄姑山路11号,120.12869192142917,30.27653167258342
B0FFF053KM,重庆鸡公煲求智社区店,3.7,19558128369,四川菜(川菜),50102,44,文三路158号3幢1号1层西起第七间,120.13742342065012,30.279996822765973
B0J19H00Y2,重庆鸡公煲(西港新界B区店),3.4,19357323982,四川菜(川菜),50102,50,,120.06414513797121,30.315007840182144
B0JGGCT5X7,飞花令·川菜馆(转塘店),4.6,19357185866,四川菜(川菜),50102,56,霞鸣街215号(霞鸣街地铁站C口步行270米),120.06537187939084,30.14514504093348
B0KUSRQCMU,川味说·四川小吃(三墩店),4.1,19357166786,四川菜(川菜),50102,15,荡鱼街18号,120.07177026735626,30.333566661834006
B0IRTZDT6J,重庆人家川菜馆(浙港国际店),4.6,19012866595,四川菜(川菜),50102,72,浙港国际1号楼148号,120.08766192750281,30.310774911670546
B0JUTM9G3Y,美蛙四季(世创未来店),4.6,19012820701,四川菜(川菜),50102,67,世创未来中心底商105,120.06927498598155,30.322256771471125
B0KDFS73O7,撒椒川念餐厅(转江街店),4.6,18867537688,四川菜(川菜),50102,96,转江街200号(超成金座),120.06599314468455,30.161585802461524
B0JUS7GH4E,子非鱼,4.3,18858126847,四川菜(川菜),50102,55,之江里金街4号楼底商9798,120.06556762804786,30.146824752960736
B0K2NS1QSF,万州烤鱼·川厨川菜馆,3.9,18814832944,四川菜(川菜),50102,74,留下街道留和路504号(小和山地铁站B口步行280米),120.01510761206526,30.213672073704178
B0L27UKB0B,泡菜鱼·川味小馆(紫金生活广场店),4.3,18658882226,四川菜(川菜),50102,70,三墩镇金庄路269号1-4号裙楼一层105室,120.0657038058567,30.343353947019573
B0JB2RVGG5,爱意酸菜鱼馆,4.5,18606757477,四川菜(川菜),50102,52,原野花艺(杭州)仓储中心西南侧110米,120.09102939543689,30.096231424812228
B0LKM965ZP,章记重庆鸡公煲·甲鱼煲(学院路地铁站),3.8,18606717151,四川菜(川菜),50102,29,学院路180号(学院路地铁站B1口旁),120.12491444620572,30.28570199784104
B0K0XNJSJS,乡村基(中节能·西溪首座店),4.1,18158172133,四川菜(川菜),50102,24,蒋村街道中节能西溪首座A1号楼(紫霞街53号),120.07094302696959,30.292070650351842
B0L09HCD92,探鱼·鲜青椒葱葱脆皮烤鱼(西溪龙湖天街店),4.4,18085061072,四川菜(川菜),50102,70,蒋村街道花蒋天街商业中心2号楼五层66号,120.06376896542902,30.2963905474465
B0LGT7VD2B,稻田季江西小炒(之江银泰百货店),4.3,18072963980,四川菜(川菜),50102,60,珊瑚沙路49号银泰百货杭州之江店F2层-2040号,120.09732487046152,30.16966399115084
B0FFKT8GYU,鱼你幸福酸菜鱼(珀莱雅店),3.6,18068292280,四川菜(川菜),50102,26,留下街道西溪路588号珀莱雅大厦美帆广场第一层111商铺,120.09832482633668,30.26538046699221
B0JDXOGU8A,重庆鸡公煲(转塘店),3.4,18020548556,四川菜(川菜),50102,58,洙泗路与丽景路交叉口南140米,120.08014640010062,30.16547575507606
B0G0S13ODO,彭記重庆小面,3.9,15895536176,四川菜(川菜),50102,18,三墩镇竞舟北路89号竞舟瑞泽商务中心3号楼103-1,120.09528133177515,30.30460198450594
B0LAF4YALZ,安青青重庆牛肉面馆,4.3,15836532002,四川菜(川菜),50102,20,万塘路68号中兴文都苑,120.11973198044397,30.277952968675752
B0KUB7Z0WH,飞花令·川菜馆(西投银泰店),4.6,15558157660,四川菜(川菜),50102,69,西投银泰4楼4016飞花令川菜馆,120.09929776332454,30.149525022379805
B0FFKCL27G,知馨客饭店,4.4,15382327795,四川菜(川菜),50102,27,白龙路慈母桥村路南52号,120.03592871462043,30.18824001658792
B023B1714B,川菜馆(西溪路店),4.2,15372024845,四川菜(川菜),50102,50,西溪路64号,120.13798956101623,30.272221445965663
B0JK2STAP9,重庆小碗菜(龙湖杭州西溪天街店),4.4,15215252304,四川菜(川菜),50102,37,余杭塘路1001号龙湖杭州西溪天街1号楼131室,120.06256973697795,30.296762124452478
B0FFIF13AM,重庆鸡公煲(金街美地店),4.3,15168288687,四川菜(川菜),50102,44,金街美地商业中心3号楼130号,120.07314960606328,30.150277480590923
B0FFIK7ANU,徽记饭店(慈母桥店),3.6,15158056089,四川菜(川菜),50102,24,龙坞慈母桥村路南12号,120.03708663888534,30.18776130056591
B0KGZH3NL8,鱼你幸福酸菜鱼(之江银泰百货店),4.0,15088646369,四川菜(川菜),50102,31,转塘街道珊瑚沙路之江长九中心6号楼118室-27,120.09637590414279,30.169451859564678
B0H0HCC48A,鱼你在一起(星光荟店),3.9,15068191235,四川菜(川菜),50102,36,转塘街道杭荟城6号楼117室,120.07122810256149,30.16110399536965
B0FFGIWQ5U,川菜人家(振华路店),4.3,15068121607,四川菜(川菜),50102,55,三墩镇振华路270号,120.06374739792679,30.3149053765708
B0FFMFZO2F,笑傲江湖川味馆(竞舟路店),4.4,13958083415,四川菜(川菜),50102,64,竞舟路28号,120.10061059779832,30.275874086133424
B0I27UPDU1,重庆鸡公煲(龙章路店),4.0,13918669674,四川菜(川菜),50102,38,龙章路26号,120.05329243099901,30.283397119426482
B023B173NN,小四川(东和店),4.5,13858053157,四川菜(川菜),50102,45,高教大道支四路小和山新苑一区11号,120.02725838808956,30.219064184350255
B0G12RLWV4,爷爷家豆花川菜馆,4.3,13819131053,四川菜(川菜),50102,62,双浦镇三立钱塘one8号楼393商铺,120.11153029765006,30.150534124694808
B0GKRAB5GK,郭记烤鱼(汇禾领府店),4.2,13735860139,四川菜(川菜),50102,92,紫宣路汇禾领府内6号楼5-6,120.06632606378369,30.324794818042214
B0K6CDU4NI,重庆特色小炒,3.3,13666604427,四川菜(川菜),50102,,小陈汽修西北侧,120.03142677631217,30.348492036984492
B0JDRLSCZX,重庆麻麻鱼(国际花园店),4.2,13656688023,四川菜(川菜),50102,97,天目山路160号国际花园,120.13364322824943,30.273950763901187
B023B17G9M,重庆鸡公煲(小和山新苑店),3.2,13646837848,四川菜(川菜),50102,48,留下街道小和山新苑8区3幢北起第8间,120.02728029150262,30.21965409155089
B0J0RUOAPX,美川小居麻辣香锅(华远大厦店),4.5,13634158867,四川菜(川菜),50102,41,文三路463号-6(文三路地铁站D2口步行70米),120.12137032420337,30.27872663491736
B0LB7RV8P3,小蛮腰重庆鸡公煲,3.5,13588826706,四川菜(川菜),50102,52,翠苑新村三区东区62幢104号,120.1158701257193,30.292437731720167
B0FFFA84B2,重庆姚记麻辣烫,3.8,13512367171,四川菜(川菜),50102,33,古墩路258号(五联地铁站E口步行360米),120.09563370429245,30.28077160627567
B0FFGZRCCA,原味堂(杭大路店),4.5,13454025385,四川菜(川菜),50102,24,杭大路14号(黄龙洞地铁站A1口步行280米),120.13685068475598,30.27099680890601
B0K34D2O1H,渝八两重庆鸡公煲(杭州西溪天街店),4.2,13396500189,四川菜(川菜),50102,20,蒋村街道花蒋天街商业中心4号楼110室-2,120.06369017531267,30.294524858732498
B0JR1MR53Y,渝味重庆小面(美誉商务中心店),3.9,13359672328,四川菜(川菜),50102,16,转塘街道云潮美誉商务中心3号楼107室,120.10383465317459,30.171295913979876
B0LAGHU10H,晚酒·阿英川菜馆(西溪天街店),4.6,13336086983,四川菜(川菜),50102,86,西溪龙湖天街1层86号西岸集装箱内街,120.06367906808073,30.295864725193702
B0J6AAWMPP,重庆鸡公煲(骆家庄店),4.2,13325918850,四川菜(川菜),50102,54,文一西路423号,120.09211189745919,30.288593740542574
B0FFJD4KLP,老成都老火锅·川菜(小和山新苑店),3.7,13136123689,四川菜(川菜),50102,40,留下镇小和山新苑二区39号老成都老火锅川菜,120.02780123355362,30.219098760080715
B0LA1RDAFE,川娃子重庆小面,3.3,13067969705,四川菜(川菜),50102,84,留下街道石马新村151号106,120.01832810815499,30.21143800825224
B0LAZ7W8TZ,豆小北·川渝大排档(画外桐坞店),4.1,,四川菜(川菜),50102,71,,120.05276794656663,30.202212109477138
B0LR2U4PAR,珮宛食记(紫荆天街店),4.0,,四川菜(川菜),50102,29,紫荆天街4号楼203(三墩地铁站B口步行310米),120.08613909656407,30.32258684820513
B0LK9N9XAZ,楼上楼·杭帮菜川湘菜,3.8,,四川菜(川菜),50102,41,宝石山下二弄2-6号5幢-1号,120.1475434384548,30.26351695452311
B0K15AW5SR,重庆鸡公煲,3.7,,四川菜(川菜),50102,29,西湖科技园西园八路2号创享数字健康产业园银江软件园A座,120.05928008816187,30.310967212047593
B0LKGZ25DU,鲜三辣·云贵川三省特色菜(颐高店),3.7,,四川菜(川菜),50102,26,文三路357号颐高创业大厦F4层,120.12837205348826,30.27786912361911
B0L24UOCSE,罗幺妹重庆小面(西溪银泰城双龙街店),3.6,,四川菜(川菜),50102,54,西溪银泰城南楼106,120.06914141783774,30.294365289060774
B0LKXCOCZ2,乡村基(印象城古墩路店),3.5,,四川菜(川菜),50102,25,古墩路588号印象城杭州古墩路店L1层,120.09481359554526,30.296292904753148
B0LRKRJSLJ,蒋幺妹川味铺,3.5,,四川菜(川菜),50102,,屏峰新村295号楼沿街店铺,120.04338259579328,30.227973034146054
B0LK2SRFQN,重庆鸡公煲(龙章路店),3.4,,四川菜(川菜),50102,48,西溪花园竞舟苑东门旁,120.05327637869165,30.28422506311659
B0MBKORH7J,川食坊·鲜煮记,3.3,,四川菜(川菜),50102,73,龙湖·紫金上城(三墩地铁站B口步行330米),120.0855269032481,30.321370215806798
B0IRZKWKDS,渝味重庆小面(留和路店),3.2,,四川菜(川菜),50102,21,留和路与外语路交叉口北320米,120.03110975990735,30.22673278805276
B0LB7LGJVD,火辣辣川湘菜,3.1,,四川菜(川菜),50102,,申花路与竞舟北路交叉口西南140米,120.09416188611051,30.30929136175183
B0MBAK8ODB,鸿运来川菜馆,2.9,,四川菜(川菜),50102,49,蒋太段与兰里景区绿道交叉口北60米,120.03509173858191,30.34751016517167
B0M6VPI8V7,匠嫂·灶上辣重庆野江湖菜馆,2.7,,四川菜(川菜),50102,,文三路与万塘路交叉口东南60米,120.12000348706752,30.278559191823174
B0LKLR93QL,老成都川菜馆,2.4,,四川菜(川菜),50102,,申瑞国际金座2期2幢,120.09846617654682,30.310091796113554
B0MBAXB5ZO,川湘江湖菜,2.3,,四川菜(川菜),50102,,文一路辅路与文菁路交叉口西100米,120.12050351389162,30.2904584987978
B023B08ZRO,潮粥佬(黄龙店),4.5,0571-85779778,广东菜(粤菜),50103,84,曙光路144-3号(唛歌ktv旁边),120.12960397273832,30.26610185263904
B0LK3L1AF4,村好厨粤小馆,4.2,19275716950,广东菜(粤菜),50103,44,转塘街道转江街200号西街美食城,120.06620205310645,30.161374553654046
B0LUH5J5KX,张正发茶餐厅(转塘店),4.2,18664637808,广东菜(粤菜),50103,18,奥莱金街4座底商101室,120.06557060560898,30.147069742863774
B0H6SBV6I0,养生鼎·鲍汁捞饭·燕窝·鱼翅·养生世家(西溪银泰城店),3.6,18626879268,广东菜(粤菜),50103,50,西溪银泰商业街2-北楼一楼113室,120.06937222053898,30.29568789280618
B0LKDLOJ65,恒之丰广式烧腊.猪脚(浙港国际店),3.1,18268699234,广东菜(粤菜),50103,22,三墩镇盛龙街浙港国际2号楼112号,120.08785699300924,30.311341792737796
B0I3BHAX14,杭州静安食肆·雅致粤宴,4.6,18167196888,广东菜(粤菜),50103,447,九溪景区杨梅岭路1号,120.10817278674318,30.209601496426732
B0M6O1M9MJ,港岛记·香港茶餐厅(龙湖西溪天街店),3.7,18072889302,广东菜(粤菜),50103,26,蒋村街道双龙街162号,120.06480949974664,30.294355418929275
B0HUN5BNY6,蝴蝶里(西溪天街店),4.6,18072770945,广东菜(粤菜),50103,65,花蒋天街商业中心2号楼二层21号,120.06444158709161,30.29590872049547
B0J1KKZQAL,全记茶餐厅,4.2,17354730993,广东菜(粤菜),50103,38,紫创商务中心(古墩路地铁站出入口步行320米),120.0951030399907,30.270810520765938
B0J3THIWFU,杭州西湖风景名胜区山景花园餐厅,3.9,15858112373,广东菜(粤菜),50103,486,乾龙路114号,120.11415320096752,30.218420349964596
B0I25YA148,乾园·兴禾记(茅家埠店)(暂停营业),4.5,15658130155,广东菜(粤菜),50103,367,下茅家埠28号,120.1215868461224,30.242518972900537
B0FFG974W3,港式烧腊(和家园店),4.2,15224053634,广东菜(粤菜),50103,19,杨梅山路和家园小区357号,120.0551485199657,30.234991033479748
B0LGMZDYB9,张政发茶餐厅(百脑汇店),3.9,13376819880,广东菜(粤菜),50103,23,教工路23号百脑汇五楼,120.1308059884182,30.276576509917557
B0K6GH31EA,润福田隆江猪脚饭(领富商务中心店),4.2,13067782701,广东菜(粤菜),50103,19,紫萱路279号汇禾领府4号楼底商西8商铺,120.06605625907387,30.324151232955398
B0M6TR6BUY,羊司令单县羊肉汤,3.8,,山东菜(鲁菜),50104,24,双龙街588号杭州西溪银泰城东区,120.070312011608,30.294438037154574
B023B149Y5,外婆家(古墩印象城店),4.5,0571-88834789,江苏菜,50105,53,古墩路588号杭州印象城2楼,120.09466049204002,30.295827947985167
B0GD9PJH0S,外婆家(杭州珀莱雅店),4.6,0571-88378379,江苏菜,50105,56,西溪路588号珀莱雅美帆广场F2层,120.09815970550231,30.264653497344195
B0FFF754YV,柏翠轩,4.5,0571-88196666;15068182150,江苏菜,50105,,西湖区植物园桃源岭10号,120.11450885611953,30.25380518375528
B0FFLKOS7K,外婆家(杭州龙湖紫荆天街店),4.5,0571-85067925,江苏菜,50105,49,三墩镇古墩路1009号龙致商业中心6幢501号,120.08725667413555,30.32275649075675
B0J2G1BHTZ,禧忆阁(紫金生活广场店),4.5,18072789589;18106593378,浙江菜,50106,76,三墩镇周坪路与金庄路交汇处东侧紫金生活广场2楼211室,120.06582078709332,30.34283288022938
B0FFGFYQZ0,诚品味道,4.5,18058777284;18413259438,浙江菜,50106,61,蒋村街道紫霞街155号西溪诚品商务中心1号楼1层,120.06189167078617,30.29150964401167
B0FFGQ2V4X,千味面馆(同人精华店),3.6,15958313931;15958338191,浙江菜,50106,27,古墩路616号同人精华1座底商20号,120.09396917395185,30.303878003186288
B023B14CBD,红太阳美食,4.5,15868847220;18758097088,浙江菜,50106,49,大龙驹坞40号,120.07866540006818,30.25681156263584
B0FFJB98AS,衢州菜馆(申瑞国际店),3.4,15067146505;15968894810,浙江菜,50106,30,申花路435号申瑞国际F1层,120.09445114460307,30.309359364128078
B0FFI2017Y,建德奶酸菜鱼(浙大紫金港店),4.6,13735453738;18305005220;19941197484,浙江菜,50106,47,紫荆花北路51号,120.08640209834893,30.312419067582358
B0FFFA5PC5,江南名石苑餐厅,4.4,13666676196;15088828005,浙江菜,50106,432,北山街87-3号,120.12816657613087,30.25412397533025
B023B1D8BD,沁杭小厨.农家菜(西城店),4.6,13588759179;18958015297,浙江菜,50106,69,竟舟北路西城年华4号商铺,120.09527879046675,30.31092222364516
B0LD57UD8Z,阿宝蒸菜馆华泰店(暂停营业),4.5,13506500165;19157715695,浙江菜,50106,38,留下街道西溪路698号15号楼一A6室,120.07931626585597,30.259401924124013
B0IAT4HNFF,忂州鸭头(浙大紫金港店),3.9,13372408409;13385816082;15868496977,浙江菜,50106,28,紫荆花北路95号望月商铺87号,120.08634099632219,30.313246983794134
B0H1KR4EFG,墨绿·Art space餐厅(转塘美院店),4.7,13362150971;13372521882,浙江菜,50106,78,博美路2号,120.07080123781046,30.160900431033596
B0FFHSGEX0,小彭饭店(颐景园店),3.5,13291818978;15869179018,浙江菜,50106,20,三墩镇颐景园曲水苑大禹路1幢103号商铺,120.07628159039831,30.335039525717043
B0IG1MD9TS,星哥奶酸菜鱼(铂悦城店),4.5,13186986330;13758170272,浙江菜,50106,45,屏新路2铂悦城C204号,120.04433292933787,30.230287870687835
B0FFKX4GQ5,好食堂1987(星光城店),4.5,0571-89990078;0571-89990087,浙江菜,50106,92,文三路508号,120.11592535599497,30.279171154450562
B0GRR1L2PE,外婆家(杭州黄龙万科店),4.6,0571-89807053,浙江菜,50106,46,学院路77号黄龙万科中心K-lab五层506号,120.12439290428756,30.278361113629337
B0FFGFQY7L,紫金港国际饭店-中餐厅(中餐厅),4.3,0571-89731017,浙江菜,50106,107,申花路796号紫金港国际饭店2层(浙大紫金港校区附近),120.08988348647439,30.30904766234091
B0FFLCEA2S,一席茶茗宿酒店,4.5,0571-89198198;18968056693,浙江菜,50106,,上城埭路许家村2号,120.0388220574812,30.18187652461582
B023B0I018,老头儿油爆虾(西溪湿地店),4.6,0571-88979700,浙江菜,50106,96,古墩路沿线文三路493、495号,120.08693337637736,30.27728278891196
B0FFMFYP04,新味馆(新星小区东区店),4.3,0571-88953810;15356658228,浙江菜,50106,60,新星小区文星路6号,120.0825674494703,30.324744007503977
B023B17ETB,樵食庭院餐厅,4.5,0571-88945899;13157181976,浙江菜,50106,112,梅灵北路天竺路267号,120.1003855348654,30.238113162239895
B0G3A5F5DX,新白鹿(之江银泰店),4.6,0571-88880990,浙江菜,50106,65,转塘街道珊瑚沙路49号银泰百货之江店3楼3014号,120.09776831962895,30.169969058682913
B0KDV5SB6P,东大方(杭州云澜谷店),4.5,0571-88739979;19011289979,浙江菜,50106,68,文二西路1093号云澜谷F1层,120.06263162836163,30.285813218810514
B0FFGWDJ8B,新白鹿(宋江印店),4.6,0571-88265588;17816737600,浙江菜,50106,65,文一路296号汇和城5楼,120.11886714925564,30.290608790130456
B023B152Y1,外婆家(杭州马塍店),4.6,0571-88051987,浙江菜,50106,58,马塍路6-1号(沈塘桥地铁站F1口步行440米),120.14495501590189,30.277277261262086
B023B17EHF,莲遇花园餐厅,4.7,0571-87999767,浙江菜,50106,103,杨公堤32号(曲院风荷4号门内),120.1272087186505,30.249668098699605
B023B0ADUR,山外山·林语花园餐厅,4.6,0571-87998667;19967475051,浙江菜,50106,126,灵隐路6号(植物园牌匾旁),120.12318317259233,30.25555975135229
B023B188H6,山外山菜馆(玉泉路店),4.7,0571-87995866,浙江菜,50106,126,玉泉路8号植物园北门内(近灵隐路),120.11604935387136,30.258386162681138
B0FFIVCEJD,玖号玉竹餐厅,4.5,0571-87982557;13506719221;13616521862,浙江菜,50106,78,玉古路9号,120.1192425908769,30.258955193964134
B023B09LCU,茗佳居茶庄,4.5,0571-87980510,浙江菜,50106,103,三台山路184号棋牌会务餐饮,120.12641225853231,30.23339528268021
B0FFGE0I6N,柒园(黄龙万科店),4.5,0571-87979123,浙江菜,50106,126,学院路与文三路交叉口西南侧坤和万科·黄龙万科中心K-labL4-424,120.12421449986158,30.278464892216874
B023B09I4S,解香楼,4.7,0571-87975858,浙江菜,50106,751,八盘岭路1号紫萱度假村内,120.129205920712,30.2317579940507
B023B15DFI,兰轩村庄食坊(安缦法云店),4.6,0571-87973776,浙江菜,50106,555,法云弄22号安缦法云,120.09253658037156,30.237659179814806
B023B1AHA6,云舍茶餐,4.4,0571-87964908,浙江菜,50106,72,三台云舍92号,120.12829391372631,30.229970912275633
B023B17G0Z,栖霞酒家,4.3,0571-87962613;13858049395;18258849449,浙江菜,50106,79,北山街道栖霞岭11号,120.12894534731029,30.254916931525898
B023B0BCMW,绿茶餐厅(龙井路店),4.8,0571-87888022,浙江菜,50106,150,龙井路83号(浙江宾馆后门斜对面),120.11871558443167,30.234635519410734
B0HA76Y3BT,元和江鲜馆(莲花街店),4.0,0571-87771118;15958102048,浙江菜,50106,105,元和城市之星酒店西城店正门旁,120.09912702516131,30.273695885927463
B023B18HYA,童年小筑(紫金港店),4.6,0571-87683385,浙江菜,50106,75,三墩镇申花路757号(剑桥公社E座2F),120.09077717258704,30.308488606805497
B0LGVMCMXG,望江楼(断桥店),4.4,0571-87211977,浙江菜,50106,150,北山路11门店1号,120.14717251528474,30.26202344387756
B0IR67PV9P,九漱(九溪店),4.7,0571-86966566,浙江菜,50106,374,九溪徐村86号,120.11207389609432,30.190041141417492
B0HGFG3TBY,韵西湖创意江南菜,4.5,0571-86854241,浙江菜,50106,102,303生活广场东北5门东南130米,120.07463971871893,30.33446993022078
B0FFLNY6XJ,绿茶餐厅(杭州紫荆龙湖店),4.5,0571-86626757,饮品店,50106,150,三墩镇古墩路1009号龙致商业中心6幢401号,120.0871686214978,30.322799509423
B0FFF661G3,老头儿油爆虾(翠苑店),4.5,0571-85779975;13282157715,浙江菜,50106,81,文一路296号汇和城2层,120.11871986040792,30.290516652089927
B0L16US2KU,也龙井餐厅,4.7,0571-85501502,浙江菜,50106,105,龙井路98号,120.11556580719336,30.23040982258491
B0L2DS8H5E,绿茶餐厅(西湖·南山路店),4.5,0571-85383995,浙江菜,50106,150,西湖街道南山路45号,120.15055236149155,30.235646402840985
B023B1ELRV,百乐饭店·江浙菜·烧烤(灵隐店),4.5,0571-85211174;13758250306,浙江菜,50106,58,白乐桥140号(灵隐寺旁),120.10345977683927,30.246347666483423
B0FFILE5CZ,外婆家(杭州西溪银泰城店),4.5,0571-85128178,浙江菜,50106,57,余杭塘路西溪银泰城4层(浙大紫金港地铁站出入口旁),120.07162351582433,30.295964546985452
B0FFF5R93K,杭州西子湖四季酒店金沙厅,4.8,0571-81135188,浙江菜,50106,693,灵隐路5号杭州西子湖四季酒店1层(近曲院风荷),120.12487803057316,30.2541788562293
B0FFG3BKSQ,天伦里餐厅(西溪新座店),4.6,0571-81060001;0571-87672720;18989863254,浙江菜,50106,168,西溪路550号西溪新座7号楼1层东,120.1059061227353,30.271142734899104
B0FFGXGSLD,老娘舅(杭州西城广场店),4.2,0571-81022084,浙江菜,50106,30,文二西路551号西城广场2楼,120.08944743640029,30.282704664431623
B0H1U91RDF,六聚馆辣衢州开化水煮鱼(浙大森林店),4.5,19906717861,浙江菜,50106,69,浙大森林东北门旁,120.05828591390575,30.31157566395858
B0LGL7NJID,钱江源农家菜,4.3,19857169587,浙江菜,50106,79,天目山路327号合生国贸中心,120.09371725874591,30.265039986714118
B0L2XDXK3N,衢府地道山里菜(杭州地道山里菜),4.4,19550273709,浙江菜,50106,54,洙泗路光阳大厦A座1层,120.08013036483513,30.165854752046336
B0I1RC6ICF,宴三衢·飨宴,4.4,19357626367,浙江菜,50106,83,西溪街道文一路106号,120.13069649513795,30.29110587775601
B0FFF5VNK1,穿越·外婆家(西溪天堂店),4.7,19357104596,浙江菜,50106,118,紫荆港路21号西溪天堂旅游综合体20号楼,120.08557350523542,30.26768912445892
B0I1C9KLJF,紫竹·水乐西湖·庭院餐厅,4.7,19145479705,浙江菜,50106,214,三台山路183号,120.12633212018778,30.232862218851587
B0L129VELN,钱三舅浙江土菜大排档(三坝店)(暂停营业),4.6,18958098539,浙江菜,50106,55,三坝巷与萍水西街北120米,120.09481297277576,30.30359207083407
B0J2Z59QDU,桃園里(宝石山店),4.4,18868777399,浙江菜,50106,233,北山街道桃园新村2526号,120.13859070619743,30.265577987883486
B0FFFA7XL7,衢州香辣馆(登新公寓店),3.8,18858192102,浙江菜,50106,44,登新公寓商铺38号,120.08380368720967,30.280160631035155
B0J15CX8YT,阿扁头河鲜土菜馆,4.6,18767107894,浙江菜,50106,105,宋城景区之江路148号朋克街15号铺位,120.09606929338362,30.17301469650664
B0ID2R3FM4,隐世·老舍餐厅(西湖店),4.7,18758875132,浙江菜,50106,95,白乐桥21号,120.10265372025088,30.246112355703847
B0IK6CMEK3,色客小馆.咖啡.精酿,4.3,18757102511,浙江菜,50106,,象山艺术公社E3色客小馆(近四望桥大台阶),120.06714316994456,30.154508633430403
B0I26AEIZ9,稻状元(西湖国际店),4.2,18668242689,浙江菜,50106,22,翠苑街道文二路391号西湖国际科技大厦1幢1层101室,120.11722548962517,30.283545921368113
B0FFHWL75B,狮城大院·千岛湖鱼馆(西湖三墩店),4.6,18657181696,浙江菜,50106,64,三墩镇灯彩街567号华彩国际5幢商5商6号,120.06562346506868,30.3244627252548
B0FFFDEGF6,沐茗小镇私房菜馆,4.5,18657107805,浙江菜,50106,70,屏新路27号铂悦城10-202,120.04357406001442,30.230758443398624
B0FFM8KQKM,千岛湖土菜馆(留和路店),4.2,18505811925,浙江菜,50106,59,留和路546号(小和山地铁站C口步行350米),120.01417994524633,30.212722807052746
B0J1CM6IP6,辣得跳三头一掌(登新公寓店),3.7,18368815479,浙江菜,50106,52,登云圩路6-7号商铺,120.08431899648708,30.278916538610826
B0LRL7NTZ8,稻状元(转塘音乐学院店),4.2,18355813102,浙江菜,50106,26,转塘街道滨投云栖名筑西区1号楼商铺西1-5,120.06004239388328,30.158944954238773
B0FFLHIJLE,拾味庄餐饮馆,3.8,18268015888,浙江菜,50106,150,龙坞镇何家南村64号,120.03029502034032,30.184101083530486
B0L3M1PQC1,南街渔市,4.4,18157180730,浙江菜,50106,112,美原中心A座二楼207,120.07031803111555,30.153264154348342
B0GU3HIEUL,溪水酩楼,4.5,18157162333,浙江菜,50106,98,余杭塘路968号丽呈东谷酒店2楼,120.06416761768445,30.29751989664517
B0JALM5AP9,新安江畔·管家大院·建德菜(云州国际店),4.6,18067921676,浙江菜,50106,87,古荡街道古天巷8号古荆商务中心1号208室209室,120.09625124458348,30.269891716007578
B0L01UGQBL,杨味鲜餐厅,3.9,17857695215,浙江菜,50106,38,双浦镇周富村社井组4-4号,120.04519581558685,30.09834668984254
B0JGYSYZMA,璞·植物料理,4.6,17767161832,浙江菜,50106,111,西溪路588号1幢1层119、120,120.09867021537161,30.26534954472243
B0J2LR2LTQ,三食蓝小馆,4.0,17767159276,浙江菜,50106,95,浙大森林D3幢105-106室,120.05596808950392,30.31219530639165
B0FFHENQ89,三衢味馆(登新公寓店),4.4,15968809762,浙江菜,50106,74,文二西路659号登新公寓,120.08378767719225,30.280206633349174
B0FFF9U3SK,景灵食府,4.5,15968163636,浙江菜,50106,65,留下街道马家坞28(景灵食府),120.09388594412611,30.258748533148395
B023B1AMPG,老梅家饭店(大龙驹坞店),4.1,15924185718,浙江菜,50106,43,大龙驹坞45号,120.08023482319787,30.254732750900246
B023B1AXWJ,阿兵哥美食园(转塘直街),3.8,15868116260,浙江菜,50106,17,转塘直街23号,120.07491813245079,30.16508349608882
B0JUBR5LZU,江南衢味.衢州农家菜,4.6,15857011593,浙江菜,50106,42,灵溪北路合生国贸1幢7号,120.09361211978165,30.265583937491616
B0FFLA6JA9,吴家盘头江鲜馆,3.7,15700122967,浙江菜,50106,54,双浦镇吴家村460号,120.13808025089037,30.11204131162611
B0L2KAGJ1S,稻状元(西溪龙湖天街店),4.3,15700052043,浙江菜,50106,25,蒋村街道花蒋天街商业中心4号楼109室,120.06400996291732,30.2946294249975
B0JAOMO6XI,桐锣湾深夜食堂,4.4,15657138163,浙江菜,50106,83,文三西路634-1号(五联地铁站D口步行260米),120.09136120004257,30.278128862174754
B0JUTBU7W0,任记面馆(文三西路店),3.7,15546277700,浙江菜,50106,15,文新街道文三西路398-13号,120.10051626490969,30.278435808483493
B023B171DW,丰溢茶楼·农家菜,4.6,15356122578,浙江菜,50106,62,九溪九龙苑13号(近三号桥),120.11026626049203,30.196696520052477
B0JA9XKTGB,汪记新衢味,4.5,15158896883,浙江菜,50106,69,文三西路630-2号(五联地铁站C口步行200米),120.09165742857593,30.27813583604531
B0FFJ1K6DE,祝家庄野味野鱼土菜馆,4.6,13958199612,浙江菜,50106,128,西溪路567号,120.0922123353481,30.260927378431035
B0I1NOGV4V,衢二姐衢州菜(紫创商务中心店),4.6,13957021418,浙江菜,50106,66,紫创商务中心2号楼(古墩路地铁站出入口步行370米),120.09566660165751,30.270611586251842
B0K04CL4I8,一叶蔬然,4.4,13905739190,浙江菜,50106,26,西溪世纪中心6幢112号(蒋村地铁站E口步行480米),120.06738105895757,30.29543015622484
B0FFL6JQLS,牌楼菜坊(悦悦饭店),4.3,13867115501,浙江菜,50106,74,西溪路杨家牌楼132号-1,120.06674155348131,30.24631147992417
B0GR27BBBU,轩墨居农家菜,4.3,13858184660,浙江菜,50106,49,灵山村郑家083,120.03506474178589,30.124227011481832
B0FFLMZSZ3,定山小厨,4.6,13858112917,浙江菜,50106,93,万美商务中心1号楼4层(霞鸣街地铁站C口步行390米),120.06455536852873,30.14496808431466
B023B18S6M,杭茶坊(乾龙路),4.6,13777888899,浙江菜,50106,100,乾龙路83号,120.11336688075022,30.217203772368443
B0LRAR1BLC,天竺人家(飞来小院),4.5,13777881816,浙江菜,50106,91,西湖街道天竺路14号,120.10092690795855,30.2415090847818
B023B1724B,梁阿姨秘制干锅鱼头,4.6,13758192201,浙江菜,50106,79,留和路留下镇小和山新苑4区2号1号楼,120.02796600262329,30.217718411674863
B0IGT7KJZB,程咬金小馆,4.6,13675878799,浙江菜,50106,129,留下镇屏新路18号520新天地1幢103室,120.04308597188604,30.22903359957015
B0FFGX1BMK,湖畔饭店,4.5,13656714728,浙江菜,50106,65,虎跑路四眼井(望园)湖畔饭店1-1,120.13048001325575,30.219488485721794
B0LRR6J77X,金湖菜馆·创意杭帮菜(断桥店),4.4,13588878439,浙江菜,50106,48,断桥幼儿园南门东50米,120.14735890050005,30.263707618927047
B0FFLO29I6,双桥食府(暂停营业),4.5,13588115781,浙江菜,50106,201,华联村7组后村北59号,120.03260343883038,30.348516093585047
B0H6Z7T9D5,大碗家餐饮(西溪店),4.4,13588011230,浙江菜,50106,96,留下街道西溪路936号1楼101,120.06899897044279,30.25335034343789
B023B1AGSG,桃姐家•始于2005(铂悦城店),4.6,13575469528,浙江菜,50106,40,铂悦城9幢1楼(售楼处旁),120.0438157922017,30.229492013965398
B0KD9S0O22,绿茶餐厅(西投银泰城店),4.5,13524548684,浙江菜,50106,150,转塘街道枫华西路9号西投银泰城L4001/L4002,120.09801032765407,30.149380738635035
B0H1UR003H,林品·幸福餐厅(德萃公寓店),4.3,13396586559,浙江菜,50106,40,三墩集萃路83号,120.06822830429884,30.311620287801166
B0LKZ1GTBN,兴厨土菜馆,4.3,13336011127,浙江菜,50106,83,文一西路75号,120.1093089117646,30.288404035495397
B0HRLC1S3Y,老汪衢州烤饼(百脑汇科技大厦店),3.2,13306528318,浙江菜,50106,10,教工路23号百脑汇科技大厦F5层,120.13091123789147,30.276654647043994
B0G23MAZLE,晓荷·水悦西溪·庭院餐厅,4.6,13301813688,浙江菜,50106,235,西溪国家湿地公园周家村区域G2-11,120.05557591572968,30.260329362563322
B0LK7M22A3,稻状元(蚂蚁金服店),3.5,13185930317,浙江菜,50106,25,西溪路569号B区,120.09971153503263,30.26394092582957
B0L037DE3V,早点见面,2.8,13083978076,浙江菜,50106,28,留下街道石马社区91号,120.01779635057312,30.21159350436478
B0G26ZL8LQ,杭州新开元大酒店(文二西路店),4.4,,浙江菜,50106,100,蒋村街道文二西路808号西溪壹号创意商务中心27号楼2楼201-204室,120.0644596135879,30.283754993018977
B0L22MYPJN,诗野·小院,4.4,,浙江菜,50106,,西湖街道乾龙路5-1号,120.10808695890543,30.20598263644453
B0HKLCVRGV,舒老黑衢州菜自选餐厅(国际花园店),3.7,,浙江菜,50106,23,天目山路160号国际花园写字楼东楼F1层,120.13355199963104,30.273942632736958
B0LKGO1VCD,好七来煎饺(西湖店),3.5,,浙江菜,50106,18,北山街道保俶路2号北楼104室,120.14933952398627,30.26379906013174
B0FFHDANUU,衢州土菜馆(浙大店),3.4,,浙江菜,50106,41,三墩镇紫荆花北路188号,120.08905787834006,30.309683730338584
B0LKC92SUG,杭儿鲜,3.2,,浙江菜,50106,13,莫文巷与文北巷交叉口东北140米,120.13928960579491,30.288792830462736
B0LGXHBOWU,衢州面馆,3.0,,浙江菜,50106,,留和路568号翰墨香林(小和山地铁站B口步行320米),120.01485116913777,30.21443276995459
B0JD7UA67Y,煦·私房面馆(政苑小区C区店),2.9,,浙江菜,50106,15,政苑小区B区北1门西350米,120.09551676305799,30.302215283415066
B0MAHLLUUD,衢州土菜馆(望月公寓店)(装修中),1.8,,浙江菜,50106,20,,120.08750259377221,30.31361160168741
B0IUPCQUMG,小杨生煎(杭州宋城店),4.4,0571-85801872,上海菜,50107,29,之江路148-1号宋城景区SC-B03铺,120.09578998853902,30.173341654798072
B0IUAAVRRL,椿湘现炒下饭菜(紫荆天街店),4.6,19157882156;19157899508,湖南菜(湘菜),50108,55,三墩镇古墩路1009号龙湖杭州紫荆天街5层(电影院旁),120.0870335320303,30.322976524013384
B0FFGZP9JB,聚湘缘湘菜馆(汇禾领府店),4.2,13574235360;15573379686,湖南菜(湘菜),50108,54,三墩镇灯彩街567号5幢7号,120.06593129800154,30.324470343600172
B0FFHEKSYD,辣得香湘菜馆(益乐路店),4.6,0571-86793896;15875250016;18667169677,湖南菜(湘菜),50108,69,益乐路39号1幢S09室,120.10875556831134,30.281972340201573
B0FFHFPADQ,简湘·味界(三墩华彩国际店),4.4,0571-85333387,湖南菜(湘菜),50108,62,三墩镇灯彩街567号华彩国际5幢2层商铺,120.06558347463827,30.324607755578473
B0KKZSMCSH,巡湘记•乡野湖南菜(龙湖杭州西溪天街店),4.5,19967350673,湖南菜(湘菜),50108,70,余杭塘路1001号龙湖杭州西溪天街F5层,120.06393986579577,30.29628433368863
B0IUHAOOU6,湘先生米小姐(龙湖杭州西溪天街店),4.5,19157889093,湖南菜(湘菜),50108,48,余杭塘路1001号龙湖西溪天街B楼56号铺,120.06355912867517,30.29606486247779
B0JD153TKA,湘之荷·湖南会馆,4.7,18969050777,湖南菜(湘菜),50108,325,文三路90号东部软件园内7号楼8号楼中间,120.14164058700504,30.280982401510556
B0JK97FBPH,溢湘堂湖南小炒·鲜炒黄牛肉(之江银泰百货店),4.4,18966153739,湖南菜(湘菜),50108,47,转塘街道珊瑚沙路49号银泰百货F3-3020-2号,120.09728180797103,30.169862977072263
B0L2ML0FI0,湘菜坊小食堂,4.3,18958421218,湖南菜(湘菜),50108,19,西溪谷国际商务中心F座,120.06895553494034,30.29381255287391
B0JUCOB8R3,湘绯·锦(天目山路店),4.5,18868764883,湖南菜(湘菜),50108,66,古天巷8号云州国际中心1号楼2层203室(天目里附近),120.0958008132826,30.269676685672263
B023B1DGVZ,湘缘饭店(古墩路店),4.5,18658847001,湖南菜(湘菜),50108,60,古墩路254号(一席地鸡窝对面),120.09567775478881,30.280685619052708
B0K3YS4WZH,七碗湘辣椒炒肉(杭州西湖区西斗门店),4.2,18072841223,湖南菜(湘菜),50108,17,福地创业园西门旁,120.10919738224699,30.29251152304069
B0L11RM5XP,印象长沙·湖南土菜(申花店),4.2,15558167367,湖南菜(湘菜),50108,30,申花路359号申瑞国际金座1幢,120.0970646746455,30.30989155987124
B0K67A1SYE,兰湘子·湘菜小炒(杭州西溪龙湖天街店),4.5,15191406302,湖南菜(湘菜),50108,34,蒋村街道余杭塘路花蒋天街商业中心2号楼5层14、15号,120.06414074288409,30.296249074056988
B0IGS7596Y,湘绯·杭城拾佳湘菜(三深国际店),4.5,15068795418,湖南菜(湘菜),50108,67,双龙街99号(浙大紫金港地铁站B2口步行270米),120.0711098262303,30.29388328522857
B0J3TUK73G,湘先生米小姐湖南小炒(古墩路印象城店),4.4,13685266224,湖南菜(湘菜),50108,50,古墩路588号印象城(杭州古墩路店)L2层L209,120.0948716765651,30.29598294274512
B0FFGNFV5D,湘缘饭店(西溪店),3.9,13372558977,湖南菜(湘菜),50108,42,紫霞街155号西溪诚品F1层,120.06207953082486,30.29154737685324
B0K35P41IB,湘先生米小姐(EAC世贸丽晶城店),4.5,13148443679,湖南菜(湘菜),50108,55,教工路26号世贸丽晶城欧美中心1号楼二楼湘先生米小姐,120.13237388525515,30.276011750340178
B0GKSHLGKG,湖南岳阳烧烤炒饭炒面(直街店),4.4,,湖南菜(湘菜),50108,21,转塘直街与美院北街交叉口西北120米,120.07470938031736,30.162367758529456
B0L0OBI1DT,家湘爷爷·辣椒炒肉(西溪谷店),4.1,,湖南菜(湘菜),50108,66,紫霞街与弘德路交叉口东北140米,120.06929447113276,30.293082263508943
B0L35MDM0V,七碗湘(杭州文三路店),3.9,,湖南菜(湘菜),50108,31,19号线文三路地铁站D2口负一楼商业街,120.12087629277208,30.27864110864259
B0LAP7K6OL,湖南湘菜馆,3.8,,湖南菜(湘菜),50108,56,转塘直街与美院北街交叉口西北100米,120.07484137321049,30.162320649514974
B0L12YT7XE,七碗湘(西城博司店),3.7,,湖南菜(湘菜),50108,18,紫宣路158号西城博司,120.06977208867596,30.31900766360807
B0LUVOG4UN,回家湖南菜(光阳大厦店),3.6,,湖南菜(湘菜),50108,89,转塘街道丽景路18号B-218室,120.08005936981124,30.16563780166841
B0LR0CNKSF,湖南湘西米粉,3.6,,湖南菜(湘菜),50108,21,兰卡精品酒店北门旁(文三路地铁站D3口步行420米),120.11848959175563,30.27643685507126
B0MBHLISAS,火辣辣湘西食馆,2.9,,湖南菜(湘菜),50108,76,学院路77号黄龙国际中心,120.12436287119448,30.27796411684219
B0L3FH59OP,湘味轩·农家木桶饭(西湖店),2.5,,湖南菜(湘菜),50108,,石马社区,120.01888788354529,30.21036648898648
B0L117LOS3,温柔湘·湖南家常菜(第8档口二吴一石美食城店),2.3,,湖南菜(湘菜),50108,33,双龙街588号杭州西溪银泰城西区弘德路店B1层,120.06945621458866,30.295405833675204
B0KRCN45GA,湘宴·吃在湘潭(文一路店),2.2,,湖南菜(湘菜),50108,21,文一西路与文一西路出口交叉口南20米,120.1099338570235,30.2892993593484
B0L307KKKV,牛厨地道湘菜,1.9,,湖南菜(湘菜),50108,,翠苑街道文一路294号4层401-1 A02,120.11969382296304,30.290689625275665
B0KROAU0C2,掌勺客正宗淮南牛肉汤(奥莱金街店),3.9,15856865865;19703659967,安徽菜(徽菜),50109,18,转塘街道久耀商业中心5号楼140室一楼底商,120.06613933205414,30.146699050991874
B0FFIPFQXH,徽商故里(杭州店),4.5,0571-87710707,安徽菜(徽菜),50109,117,紫荆花路386号徽商故里,120.08808060402457,30.294018754976605
B0LDH5PR3G,徽灶头·安徽土菜(三墩店),4.5,0571-86751726;15088620507,安徽菜(徽菜),50109,60,三墩镇紫宣路279号汇禾领府6号楼底商6-1号商铺,120.0667388470316,30.32490230684365
B0FFJC9UAL,淮南牛肉汤(文三数字生活街区店),3.9,18969160298,安徽菜(徽菜),50109,16,翠苑街道黄龙时代广场(支付宝大楼)负一楼美食城二期,120.11991858511247,30.27533841555239
B0H1MRYPK5,安徽料理(塘苗路店),3.6,18758160262,安徽菜(徽菜),50109,21,塘苗路29号2号楼1楼105室,120.11615703437197,30.276375637623154
B0FFG6XOBW,安徽料理(三坝雅苑店),3.3,15958517240,安徽菜(徽菜),50109,19,三坝雅苑东北1门旁,120.09580654221327,30.30813961016845
B0FFHXCR2F,徽缘川菜馆(翠苑店),3.6,15905817140,安徽菜(徽菜),50109,20,文一路272号,120.1207229713081,30.290456732807353
B0JAZZRZ7W,安徽料理(学院路店),3.3,15557111525,安徽菜(徽菜),50109,16,学院路316号(翠柏路地铁站B口步行230米),120.1241709789059,30.29529608582636
B0GDTAX022,阜阳格拉条(袁浦街店),4.3,13965581413,安徽菜(徽菜),50109,23,双浦镇袁浦街8号,120.12280972880404,30.120814444792124
B0K1TAX0SS,淮南牛肉汤(云溪印象店),2.9,13774448788,安徽菜(徽菜),50109,20,,120.06703262169003,30.149806895229734
B0FFI1NYR8,安徽料理(慧仁家园南区明慧苑店),3.2,,安徽菜(徽菜),50109,20,三墩镇同仁家园金涛港B区120,120.07211620513726,30.333368356446908
B0LKL799HS,沙小龙沙县小食堂,3.9,18969978568,福建菜,50110,23,三墩镇苏镇路100号紫金港云谷中心13栋101室,120.0277554354379,30.312155502106513
B0FFFLJQNE,沙县小吃(金港店),3.9,13950902168,福建菜,50110,18,墩池路紫金港湾东区商铺6号沙县小吃店,120.07923106035635,30.331948890560927
B0FFFEI6X1,全聚德(杭州店),4.6,0571-28925777,北京菜,50111,99,莫干山路231号(沈塘桥地铁站C1口步行20米),120.14525144675676,30.281979297404515
B0J0JLMB2D,鸭恭府北京烤鸭(晴川街店),4.3,19557185895,北京菜,50111,30,晴川街413号,120.0581642484758,30.28552180587009
B0FFH159BX,老北京炸酱面(西港白领公寓店),3.3,15990133874,北京菜,50111,16,三墩镇西园五路白领公寓1一13号,120.06474865684203,30.316352888504394
B0J049MGFS,兴玉东北烧烤东北菜(新时代陶瓷店),4.6,18694553049;19012781349,东北菜,50113,80,新时代陶瓷西门旁(虾龙圩地铁站C口步行380米),120.08863454973219,30.31036373356138
B0K04CRPXQ,二丫家东北铁锅炖大鹅(晴川街店),4.6,18413259798;18969091125,东北菜,50113,66,晴川街41号,120.07856989679243,30.286034901742216
B0FFGBP498,东北大盘菜(登新公寓店),4.1,15658050455;15869144428,东北菜,50113,41,登新公寓西大门35号,120.08381269704108,30.28008563461704
B0FFJ09RFR,老百姓东北菜(步行街店),4.3,13903626654;18758571009,东北菜,50113,57,三墩镇紫宣路279号汇禾领府6号楼4-1号,120.06636704399637,30.32478077027476
B0FFHIKWJ8,佳唤东北小吃,4.4,13298828376;18443619902,东北菜,50113,36,叶埠桥梅家园8-1号,120.06101008735055,30.177003920364438
B0FFHQPGTK,东北一锅香(丰谭路城西店),4.7,0571-88977581,东北菜,50113,72,丰潭路277号智商酒店楼下政苑农贸市场,120.10074373982019,30.299616634194013
B0FFHYOCVI,东北印象餐厅(莫干山路店),4.5,0571-88052114,东北菜,50113,52,莫干山路569-571号,120.13951487873804,30.292679770335962
B023B1FNK6,红灯笼菜馆(青芝坞店),4.4,0571-87994077,东北菜,50113,67,玉古路青芝坞81号红灯笼菜馆,120.11566745323447,30.26046464232005
B0FFHO0DND,马丫东北饭儿(浙商财富中心店),4.6,0571-87075923;13165465127,东北菜,50113,64,古墩路97号浙商财富中心2号楼西门,120.09563426511905,30.274192247360876
B0FFLLKR83,厨创东北大厨(紫荆天街店),4.4,0571-85089526;13355615363,东北菜,50113,80,三墩镇古墩路1009号龙湖杭州紫荆天街龙湖紫金天街五楼,120.08704154127977,30.32291952929204
B0GKFUNKU5,大东北夜宵烧烤(百脑汇店),3.9,0571-56775266;0571-88068975;13515719697,东北菜,50113,73,教工路23号百脑汇一楼北门,120.12832201173592,30.276969145887946
B0L2NSHGS3,东北风味,3.3,0571-56775266,东北菜,50113,,黄姑山横路54号奥星餐厅附近,120.12870893294274,30.276871662048485
B0J13AJ2IA,雪乡东北烧烤·东北菜,4.3,19883218543,东北菜,50113,71,文一路272号雪乡东北烧烤•东北菜,120.12059170199214,30.290404598328177
B0JA6UGNEL,食局东北菜,4.5,19564191519,东北菜,50113,46,塘苗路6号(文三路地铁站D3口步行380米),120.11894249895087,30.27647830463673
B0K0M6MRHG,嘎嘎香一人食东北铁锅炖(嘉绿景苑东园店),4.0,18969086102,东北菜,50113,23,古荡街道莲花街264号嘉绿景苑东园,120.09511269227845,30.275002126827086
B0FFHSLSHC,乡里乡亲东北菜馆烧烤,4.4,18740182007,东北菜,50113,73,转塘街道金街美地3号楼2层,120.07316560941986,30.150206467962548
B0LKCZ0YDW,耿幸福·铁锅焖面·铁锅炖,4.2,18061441841,东北菜,50113,23,留下街道铂悦城11号楼1层111,120.04377379911439,30.23017605786394
B0G0D1C93I,鑫缘东北菜,4.1,15068888760,东北菜,50113,58,东岳街18号,120.08598641240052,30.259380711563537
B0IDJ53AKE,那嘎达特色菜(龙湖杭州紫荆天街店),4.4,13945411973,东北菜,50113,63,紫荆天街7号楼112号文星桥桥口,120.08566382467816,30.32304894640364
B0K03H7ZQH,胖东北(西溪龙湖天街店),4.3,13396560238,东北菜,50113,63,余杭塘路1001号龙湖杭州西溪天街5F层,120.06479144302902,30.295144354983677
B0FFGQ47RO,东北风味店,3.5,13351428958,东北菜,50113,30,望月公寓东2门旁,120.0857845534241,30.315193922055634
B0K15UEZF8,旺厨东北菜,4.6,13029958725,东北菜,50113,42,三墩镇创美华彩中心8幢底商2号,120.06511170333388,30.325034290526517
B0L1F7YOS2,东北特色餐厅,3.1,,东北菜,50113,17,杭州数字信息产业园2期南门旁,120.05768473163172,30.320191513679045
B0HADOI8TR,柴米多(天目里店),4.6,17706718769;17767159538,云贵菜,50114,119,天目山路398号天目里1F层,120.09409723856793,30.26926361351457
B0FFHG9BPL,三分银(辣之源)贵州菜,4.7,0571-87515961;17767193373,云贵菜,50114,98,益乐路39号蓝海时代大厦华星里街商铺,120.10855524959109,30.281971213665642
B0LKPX0XOC,黔味烟火·贵州黄牛肉烧烤(西湖店),4.3,19057286800,云贵菜,50114,72,申花路353号,120.09844613617402,30.310302766000188
B0FFJPZ0LV,阿香米线(杭州古墩印象城餐厅),4.2,18930509523,云贵菜,50114,33,古墩路588号印象城4楼(阿香米线),120.09419201996508,30.29631287436785
B0M6ODLT76,芸上·黔八斗·贵州烙锅(西溪天街铂金岛店),4.1,18785106255,云贵菜,50114,65,蒋村街道余杭塘路西溪天街铂金岛9号楼106室,120.06276668934329,30.29571797078485
B0LUTC5N9A,黔小笙贵州山里菜,4.4,18588257777,云贵菜,50114,62,翠苑街道万塘路28号104A室,120.12060591044474,30.276489029078892
B0L3CLKEJK,山花上贵州山野炒菜烧烤龙虾,4.6,18367667163,云贵菜,50114,63,转塘街道美乐商业中心1号楼119-120室,120.07624924632522,30.1512998467037
B0IGM9GYYS,衢州人家贵州黄牛火锅(之江之芯店),4.3,18258826521,云贵菜,50114,74,转塘街道东泽江芯大厦117、118、119室,120.0932987927397,30.160310976961448
B0JRN7A6TJ,贵州黔人来长寿鱼馆(小和山新苑六区店),4.5,15888877750,云贵菜,50114,38,小和山新苑六区,120.02736317851624,30.218905918650744
B0L0P91NKC,归云里·云南山野小食堂,4.5,15397072055,云贵菜,50114,49,慧仁家园北区南门旁,120.07233512024983,30.33381208543815
B0L14R27D5,夜郎贵州烙锅(紫荆天街店),4.4,13237511746,云贵菜,50114,49,三墩镇龙湖紫金公寓4号楼106-107商铺,120.08703063521544,30.321749686930772
B0HG0BTR02,西贝XIBEI(西溪龙湖天街),4.5,18101618961;18755755361,西北菜,50115,91,"蒋村街道余杭塘路1001号西溪龙湖天街6-9,6-10",120.06369201065566,30.296439643967123
B0IA3UXL74,秦味(新金都城市花园北铭苑店),3.9,13732258707;18058779070,西北菜,50115,19,新金都城市花园北铭苑(文新地铁站C口步行350米),120.09277444362242,30.28856371405072
B023B02H4V,老陕面馆(古墩路店),4.4,0571-88979884;18067904163,西北菜,50115,28,古墩路204号(近文三路),120.09585202538781,30.279524751787147
B0LKC930C7,陕西油泼面,3.5,19957243569,西北菜,50115,18,东岳街4-3号,120.0869518981257,30.25954439821966
B0L0JKEATN,陕阿婆(龙湖杭州西溪天街店),2.2,18767196615,西北菜,50115,,花蒋天街10号楼124,120.06438466269492,30.295428847544983
B0FFG8VE3E,兰州拉面(上香古道店),4.4,18258869433,西北菜,50115,20,上茅家埠龙井路34号,120.11832121584764,30.241477642838944
B0JA6CGVD3,新疆玫瑰花羊肉烧烤(景顺铂悦城店),4.4,17711720903,西北菜,50115,84,屏新路与屏新支路交叉口东北40米,120.04381978729212,30.22947700648833
B0LD597QEQ,于屿城火锅(龙湖杭州西溪天街店),4.6,18413259803;19057277839,火锅店,50117,82,双龙街10-119号(蒋村地铁站出入口步行270米),120.06373206924187,30.295451700741495
B0MBMC7EKQ,小渝儿正宗重庆麻辣烫,3.8,18223896217;18413259805,火锅店,50117,28,工专路与华星路交叉口南60米,120.12210769789054,30.28101122143856
B0LUX5IPX0,罗二火锅(杭州艺术中心店),4.6,18105810877;18989897872,火锅店,50117,93,三墩镇东蒋湾33号3栋3号,120.07532487348824,30.320375284854165
B0L26MEKUY,钱大匠毛肚火锅(万塘汇店),4.5,17623559988;18712092335,火锅店,50117,65,万塘路262号2幢一层158室,120.11953530939317,30.281123452173087
B0LK45VW48,烫三江东北老式麻辣烫(金田花园店),3.6,15968847400;18668444740,火锅店,50117,15,颐景园南门东140米(五联地铁站E口步行440米),120.09471380246696,30.281031511871287
B0J1Z5PQRQ,贵州黄牛馆(星光荟店),4.3,15267133828;15988873626,火锅店,50117,71,杭荟城6-118,120.07113513170226,30.161054089741185
B0L3U6FKIU,山里贵州.地摊火锅,3.9,15068888760;15658015333,火锅店,50117,67,留下街道东岳街12号,120.08594037366161,30.259569710854304
B0K3AH982N,莉俪老火锅(黄龙国际中心店),4.5,13738085621;15168269922,火锅店,50117,91,翠苑街道学院路77号黄龙国际中心AB楼3楼315-1室,120.12458234354256,30.27814935974826
B0HUFSVFOE,旋转小火锅,3.9,13706878426;15920041202,火锅店,50117,35,文三西路638-8号(五联地铁站C口步行240米),120.09035845979457,30.278098980002206
B0FFKTUMVK,雍大掌柜火锅(汇和城店)(暂停营业),3.7,13646869322;13880333552,火锅店,50117,99,文一路296号汇合城4层401-402,120.11885412578926,30.290575780556257
B0L3GYHV4L,举高高自助小火锅(龙湖紫荆天街店),4.6,13587973137;18466673824,火锅店,50117,65,中国////三墩镇龙湖紫荆天街5楼举高高自助小火锅,120.08713061952841,30.322576549562687
B0FFJ1TXZG,牛厂现切新鲜勤牛养生火锅(袁浦街店),3.8,13067938038;13867432573,火锅店,50117,72,袁浦街169号(袁浦小学旁双浦镇政府东北处),120.11788786006306,30.11707431363845
B0K1DR8H1M,海天牛鲜活牛肉馆(杭州西溪银泰城店),4.5,0571-89997171,火锅店,50117,61,双龙街588号银泰城杭州西溪店F1层,120.06978518529237,30.294411592356724
B0JG0HD3QR,巴蜀幺妹·美蛙自助火锅(古墩路店),4.6,0571-89872727;18906521720,火锅店,50117,91,古墩路228号(五联地铁站E口步行270米),120.09579693116753,30.27999169987257
B023B1DPCN,一席地·本地鸡窝(金田店),4.6,0571-88972523;17767076576,火锅店,50117,55,金田花园28-29-30号古墩路375号(金田小区),120.09515121230197,30.28106953603439
B0FFJPZ0LW,一席地.本地鸡窝(古墩印象城店),4.5,0571-88836625;15336540213,火锅店,50117,68,古墩路588号印象城购物中心四楼,120.09400484383652,30.296395859932428
B0G2CZ7M4Z,重庆高老九火锅(龙湖西溪天街店),4.7,0571-88266182,火锅店,50117,105,余杭塘路101号龙湖西溪天街4楼24号,120.06374600216724,30.296132606612932
B0J0HSHRHH,庭鲜大排档·潮汕鲜牛肉火锅(浙大紫金港店),4.6,0571-88165998,火锅店,50117,74,紫荆花北路望月商铺62号,120.08642812746672,30.312235082264337
B0JKZDNTJM,涮味浓老北京紫铜炭火锅(三墩新天地店),4.5,0571-88138189,火锅店,50117,72,三墩镇三墩新天地商业中心6幢二层201室,120.07509974512952,30.333736651254835
B0KDD6W11N,月陇·海鲜火锅(暂停营业),4.5,0571-88103557,火锅店,50117,404,黄龙饭店南大厅2号电梯口,120.13879996564621,30.26907700027312
B0L05RU4HB,叹今生酒馆小火锅(西溪银泰城店),4.4,0571-88100071,火锅店,50117,35,西溪银泰商业中心2号楼东楼144海底捞楼上,120.06970615723489,30.2950556052298
B0LK7Z2ZFZ,新京韵·新北京涮肉(杭州西溪天街店),4.5,0571-87999853,火锅店,50117,125,蒋村街道西溪天街4楼(蒋村地铁站出入口旁),120.06337123666287,30.296242093927212
B0KGZNX0ZT,湊湊火锅·茶憩(西投银泰城店),4.5,0571-87960355,火锅店,50117,100,转塘街道枫桦西路9号西投银泰城L4024,120.09827164444276,30.14903380060915
B0I3PCEYMT,德庄火锅(龙湖杭州紫荆天街店),4.5,0571-87828565,火锅店,50117,94,古墩路1009号龙湖紫荆天街4层(绿茶餐厅斜对面),120.08643723076291,30.32279172624461
B0FFLBF70U,海底捞火锅(杭州古墩路印象城店),4.7,0571-87755921;0571-87755926,火锅店,50117,120,古墩路印象城1层01-08、10号室商铺,120.09490871752499,30.295911952938656
B0JK75NS72,两肋叉刀,4.6,0571-87737237;15267028706,火锅店,50117,116,转塘街道杭荟城2号楼103-109-110,120.0726027301631,30.161758647584193
B0G0FH93KI,余阿福牛肉火锅店(文一路店),4.7,0571-87703837;18067964977,火锅店,50117,65,文一路272号宋江村综合楼2楼202室,120.12048447481689,30.290452479231707
B0K2SC0EEJ,牛鲜天·贵州鲜切黄牛肉酸汤火锅(西投店),4.3,0571-87659188,火锅店,50117,81,转塘街道枫桦西路9号杭州西投银泰城F4层,120.09903048317283,30.149205965445947
B0FFMGW5V5,海底捞火锅(西溪银泰店),4.7,0571-87553216;0571-87553219,火锅店,50117,120,双龙街与崇仁路交叉口西溪银泰商业中心1号楼负一层BF017BF018BF019室,120.0699570789066,30.294984347636937
B0I3VUFPND,海底捞火锅之江里店,4.7,0571-87298895;0571-88109886,火锅店,50117,120,转塘街道久耀商业中心1号楼四层407.408室,120.0659203991512,30.147269304501084
B0JA91BYK2,余阿福牛肉火锅(黄龙万科店),4.7,0571-87012511;19106570877,火锅店,50117,75,黄龙国际中心K-lab街区E座L2层,120.12325848032718,30.2775028712099
B0L16HRS4C,涮味浓老北京紫铜炭火锅(浙大紫金港店),4.5,0571-86995289,火锅店,50117,69,申花路796号紫金港国际饭店1层118室-2,120.0894641910556,30.309162718411283
B0FFHBSEIL,鲜潮牛潮汕牛肉火锅(金街美地店),4.5,0571-86991975;18158533029,火锅店,50117,71,转塘街道金街美地1幢2楼,120.07408651058796,30.149818659877603
B0JUG9E0NC,兴霸王牛肉火锅(杭州文一西路店),4.5,0571-86777783,火锅店,50117,89,文一西路405号(文新地铁站C口步行370米),120.09258028246553,30.288558721273496
B0GRTZFNCR,留下来筒骨砂锅火锅(益乐路店),4.5,0571-86696040;18158412083,火锅店,50117,88,益乐路43号,120.10913813137853,30.282569526170352
B0L3AUVQ8K,巴奴毛肚火锅(龙湖杭州西溪天街店),4.6,0571-86551577,火锅店,50117,136,余杭塘路1001号龙湖杭州西溪天街5F层,120.06388792112865,30.296021431414815
B0KDTMC1D9,蛙喔牛蛙(杭州西投银泰店),4.2,0571-86091817,火锅店,50117,79,转塘街道枫桦西路9号西投银泰城L4044-L4046,120.09887429018774,30.1493839237997
B0HRHNYHT3,湊湊火锅·茶憩(龙湖杭州西溪天街店),4.6,0571-86081536,火锅店,50117,115,余杭塘路1001号龙湖杭州西溪天街A-6F-01,120.06449653495302,30.29612962483489
B0LAYUXF9H,余阿福牛肉火锅店(浙江大学店),4.6,0571-85396717;15384016717,火锅店,50117,75,紫荆花北路188号1幢110号商铺,120.08853749725856,30.310266766337115
B0J2KM6VNM,涮味浓老北京紫铜炭火锅(西湖文三路店),4.6,0571-85198202,火锅店,50117,78,翠苑街道文三路478号华星时代广场B座1层107室,120.11996330011439,30.279789028606604
B0FFI8XG0I,313羊庄(杭州总店万塘路店),4.6,0571-85176313,火锅店,50117,81,万塘路262号,120.12003131043953,30.28132094710244
B0H1PHRA0D,西子火锅·西湖湖景餐厅(西湖店),4.6,0571-82133777;18058787555,火锅店,50117,800,龙井路69号,120.12067509999295,30.2405061328404
B0G21S8BW0,玲姐·海鲜火锅(满觉陇店),4.7,0571-81108177,火锅店,50117,657,满觉陇路1-1号C幢,120.13006302494092,30.219273931997044
B0G2MX382I,海底捞火锅(杭州之江银泰百货店),4.7,0571-81021166;0571-87831166,火锅店,50117,120,珊瑚沙路49号银泰百货4楼4001-4002号,120.09696845474701,30.170145917597765
B023B07LQD,衢龙香辣馆(颐高广场店),4.5,0571-56836215;13615810776,火锅店,50117,70,黄姑山横路58号(海友酒店旁),120.12832201173592,30.276969145887946
B0FFJZ9R5R,宽窄巷子成都串串香(转塘店),4.3,0571-56833251,火锅店,50117,64,转塘街道金街美地商业中心3号楼139号,120.07388149046916,30.150356824210334
B0LGV7XZZ1,喜码头鱼馆儿(龙湖杭州西溪天街店),4.6,0571-56000092,火锅店,50117,92,龙湖杭州西溪天街5号楼(蒋村地铁站出入口步行190米),120.06302751654692,30.295654622738855
B0FFKR6JGE,海底捞火锅(铂澜大象城店),4.7,0571-28237450,火锅店,50117,120,文一路294号铂澜大象城5层,120.11941520711818,30.291238279421094
B0I1LHJEL6,拌将麻辣拌·麻辣烫(文三路店),3.7,19817176835,火锅店,50117,26,文三路162号商铺左起第三间,120.13712564344814,30.279987366818627
B0LUYAPN1Y,拌将麻辣拌·麻辣烫(转塘店),3.6,19560143315,火锅店,50117,26,灵美路与梦蝶街交叉口东120米,120.07391751520022,30.150010802042676
B0JG6LIMHL,牛鲜天贵州黄牛肉酸汤火锅(之江银泰百货店),4.4,19558196632,火锅店,50117,99,转塘街道珊瑚沙路49号之江银泰百货4楼4006号,120.0970195962462,30.16910696155614
B0L26OEYBJ,云贵鲜切牛肉火锅(暂停营业),4.3,19521694883,火锅店,50117,99,丰潭路276号(丰潭路地铁站B口步行220米),120.1042725615051,30.285547521123842
B0L11AKLUJ,马厂老火锅(三墩店),4.5,19517986043,火锅店,50117,95,三墩镇三墩新天地商业中心8幢1层358号,120.07496673303638,30.333987725446324
B0J2GH7MGI,湖岭一头牛·黄牛肉火锅,4.6,19357551502,火锅店,50117,91,灵隐街道玉古路168号,120.12397673274023,30.269500462446317
B0L1UX4A3K,马厂老火锅(杭州首店),4.6,19357539801,火锅店,50117,114,紫荆北路188号4幢181号,120.08776815245514,30.308863117898238
B0JU2A8EHS,小牛满满·贵州黄牛肉火锅(浙财大金融科创园店),4.6,19357503707,火锅店,50117,68,益乐路文一西路交叉口财经学院金融科创园一层(麦当劳隔壁),120.10872798087847,30.28836766382801
B0LB79G60K,潮汕鲜牛肉火锅(三墩店),3.9,19357323982,火锅店,50117,56,西港新界B区东南门东100米,120.06410616309073,30.314997892429545
B0JAGSARXL,京永盛·老北京铜锅涮肉·烤串(紫金港店),4.6,19357318577,火锅店,50117,122,三墩镇古墩路705号杭州新时代紫金家具商城A座一楼A118号铺位,120.08907373599791,30.31147250795742
B0KU7UAAQG,炉上牛肉档·牛肉粿条·牛腩饭·火锅(万塘店),4.5,19357307026,火锅店,50117,47,翠苑街道万塘路262号6幢1楼万塘烟火路边,120.11946618711758,30.28090140329264
B0M60UMCYW,郭大黔云南山系酸汤牛肉自助火锅(浙大紫金港店),4.5,19357268698,火锅店,50117,52,紫荆花北路85号,120.08635002834534,30.312926020938985
B0J02YOV9X,黔夺夺贵州酸汤火锅(宝港生活广场店),4.7,19243060446,火锅店,50117,71,紫荆花北路188号4-148号,120.08806032347131,30.308885043543043
B0HU2NQEQC,许府牛火锅(浙江杭州西湖古墩印象城店),4.4,19235810360,火锅店,50117,55,古墩路588号印象城(古墩路店)L2层L215,120.09423205609544,30.2963158753405
B0LK35046V,潮刘记潮汕牛肉火锅(烟火万塘店),4.5,19229240255,火锅店,50117,102,万塘路烟火万塘生活广场2幢1楼106号,120.12039305775284,30.281331326646253
B0K2VZ71E1,滇翁·云南酸菜牛肉火锅(西溪天街店),4.4,19157687709,火锅店,50117,85,蒋村街道西溪天街5楼,120.06430866367323,30.295961887057697
B0I247SR7B,清欢凉都黄牛肉火锅,4.6,19106762778,火锅店,50117,81,古荡街道浙商财富中心4幢101室,120.09571248963925,30.272456418807035
B0LUUSPVZB,那些年鲜活牛肉火锅(杭州青芝坞店),4.5,19057299227,火锅店,50117,65,青芝坞15号,120.11613732755849,30.26067604858272
B0J35ZTVUT,火锅鲜生时.鲜牛肉火锅外卖(城西店),3.3,19016900081,火锅店,50117,68,文新街道竞舟路352号,120.09844283605798,30.29030605579798
B0L33S9N3Y,觅香老火锅(BAC店),4.5,19012896185,火锅店,50117,115,象山路131号BAC艺术社区二楼,120.07079389535957,30.153183668334147
B0L09CDHMO,十个锅锅·自助小火锅,4.1,19012719519,火锅店,50117,20,三墩镇后陡门58号勤天小镇,120.01633142773922,30.334648874023202
B0IABRLCKT,老博东北老式麻辣烫,4.2,18989489716,火锅店,50117,26,剑桥公社C座3幢16号,120.08927318138875,30.307785919403646
B0L0JNEHOL,贵孃孃贵州米粉·地摊火锅,3.8,18918048184,火锅店,50117,65,万美商务中心6号楼105室-1,120.06472125655708,30.145120867020573
B0LA6RCWPB,许府牛火锅(龙湖杭州紫荆天街店),4.4,18906539281,火锅店,50117,55,古墩路1009号紫荆天街4F36a,120.08701556140248,30.322517589916927
B0JDJZDD66,西火火川派小火锅(杭州西溪银泰城东区店),4.4,18806520946,火锅店,50117,39,西溪银泰城负一楼B1035,120.07063177538726,30.296066527679525
B0FFIBH95G,贵州树林牛肉馆,4.6,18806506101,火锅店,50117,91,三墩路418号(星程酒店附近),120.09081870196947,30.326079350292982
B0FFGV5EJB,格格鲜串串火锅(文一西路店),4.5,18768108371,火锅店,50117,65,文一西路411号,120.09272740626433,30.288540717948845
B0K6TBNTMG,牛鲜天贵州黄牛肉酸汤火锅店(浙大紫荆天街店),2.1,18758282900,火锅店,50117,,三墩镇龙致商业中心5号楼217,120.0864243071786,30.321818858765887
B0J6JS8ELJ,以牛为本·鲜牛肉铺(古荡店),3.5,18667139653,火锅店,50117,,古荡农贸市场支路东30米(古荡地铁站A口步行470米),120.11405924979066,30.274824951898257
B0LK5LTX8Q,刘一勺·贵州酸汤牛肉火锅(黄龙体育中心店),4.5,18368307047,火锅店,50117,74,玉古路168号(黄龙体育中心地铁站D口步行120米),120.1239857353452,30.269704454303206
B0K2A1T4XG,禧满牛贵州黄牛肉馆.干锅火锅(金田店),4.7,18057196750,火锅店,50117,64,金颐巷与古墩路交叉口西南20米,120.09516322770001,30.281023541520103
B0K3A4083T,蘭记牛府贵州黄牛肉火锅(浙大紫金港店),4.5,18057192206,火锅店,50117,72,三墩镇紫荆花北路188号2幢107号,120.08755893685205,30.30997003688953
B0J0JRMQEY,蘭记牛府黄牛肉火锅(转塘店),4.5,17826871527,火锅店,50117,87,转塘街道丽景路18号,120.08046642058014,30.16598954987616
B0J2J7CQXB,蘭记牛府贵州黄牛肉火锅(龙湖杭州西溪天街店),4.6,17816139809,火锅店,50117,80,龙湖西溪天街双龙街206号,120.06306258418435,30.294584693571036
B0L1OCOW19,云南酸汤腊猪脚火锅,4.4,17767254810,火锅店,50117,60,霞鸣街与象山路交叉口西南60米(霞鸣街地铁站C口旁),120.06775873589112,30.144534186466913
B0L0MLA5WI,琼海楼糟粕醋·海南酸汤火锅,4.4,17706811519,火锅店,50117,97,转塘街道枫桦西路9号西投银泰城B1层004号,120.09807945231606,30.148802767744467
B0JABLQAR2,美蛙四季(杭州总店),4.5,17706536896,火锅店,50117,72,文二路与万塘路交叉口东140米,120.12022239089144,30.285028771196565
B0FFIH11YQ,扬州邵伯火锅,4.5,17706410127,火锅店,50117,102,厚仁路与荡漾弄交叉口北80米,120.07480172813547,30.33419583319366
B0KU45QZOD,不万能先生火锅(西投银泰店),4.4,17606531562,火锅店,50117,62,枫桦西路9号杭州西投银泰城F4层,120.09899440894746,30.149595946365807
B0J36DNSSR,云南天麻火腿鸡,4.6,17376564133,火锅店,50117,78,古墩路74号2室,120.09702981455462,30.272601571302246
B0KG1Z3F37,云尚牦牛藏式火锅·甘孜印象馆(杭州首店),3.8,17366636788,火锅店,50117,69,文新街道文一西路333号(文新地铁站C口步行360米),120.0951045288385,30.288569761634076
B0KAMD5T39,黔满兜·贵州烙锅·火锅,4.4,17366636689,火锅店,50117,62,双浦镇梧桐支路9号西投银泰云潮中心11号楼1层28号,120.09942698148808,30.148717076741146
B0LAK7LFT5,猴马兔市井火锅鸡(龙湖杭州西溪天街店),4.5,17328897679,火锅店,50117,45,天街商业中心4号楼117室,120.06362922456144,30.29440895246941
B0J04AXP9W,叁步梯·重庆老火锅,4.5,17326049272,火锅店,50117,103,天目山路紫创商务中心5号楼,120.09464262449286,30.27060051197887
B0K624YTTA,叁步梯·重庆老火锅(之江银泰百货店),4.5,17326049272,火锅店,50117,99,珊瑚沙路49号银泰百货(杭州之江店)一楼,120.09659809241104,30.16990287292677
B0LRXHYM8D,善食锅语自助火锅,4.5,17280770772,火锅店,50117,50,西溪天街4F,120.0639978246553,30.29633825145094
B0L25YBCXB,晨午串香居,4.4,16665707242,火锅店,50117,11,留下街道大龙驹坞75号,120.0799007018937,30.25541689482468
B0L67ANSX6,哈尔滨涮肚(原良渚店),4.6,16299689968,火锅店,50117,102,池华街地铁C口(池华街地铁站C口旁),120.06404885949202,30.33066988968895
B0HRA7L68J,垚合牛府黄牛肉火锅(合生国贸中心店),4.7,15988892784,火锅店,50117,75,灵溪北路19号商铺(合生国贸中心西1门口),120.0936681957761,30.265270965739326
B0FFJRBWRF,蜀都客·鲜鱼火锅,4.6,15988421041,火锅店,50117,91,留和路502-2号二楼,120.01500680893173,30.214231332513492
B0L1GHB6M6,马厂老火锅(西溪天街店),4.5,15968899671,火锅店,50117,100,蒋村街道双龙街172号、174号,120.06461861087794,30.294380661035152
B0LKNLR6FV,杭景元·东北老式麻辣烫(之江店),3.8,15968687220,火锅店,50117,28,之江银泰3层3029-2,120.09776432344415,30.16987306129324
B0G1GSO3LH,淘汰郎小火锅(转塘店),3.6,15968105996,火锅店,50117,,转塘街道象山国际2号楼1楼,120.07405628224224,30.152550610822445
B0K2G9NY0O,排排浪·围炉小火锅·深夜小酒馆,4.1,15925634074,火锅店,50117,35,留下街道小和山新苑7区1-6商铺,120.0266925807907,30.219261662891807
B0FFFE90TU,再回首老北京火锅,4.4,15924172231,火锅店,50117,72,屏新路18号520新天地创业园区1号楼101,120.04306601120084,30.22894164839344
B0LKPUZJ84,四季羊骨,3.4,15900597599,火锅店,50117,38,四季羊肉馆(汉庭优佳杭州文一路翠柏路地铁站酒店店),120.12027304183479,30.290385262794768
B0LU1DFX88,湘渝围炉串串香(万塘路店),3.8,15896909627,火锅店,50117,50,翠苑街道万塘路262号内街3号集装箱,120.1199210979724,30.28114984914655
B0KAV5F807,阿乐火锅烤肉·饺子(浙大紫金港店),3.5,15895663172,火锅店,50117,47,剑桥公社D座4幢5商铺,120.09003969249407,30.307906776209467
B0LAZ108PQ,风火轮川渝老火锅(翰墨香林店),4.3,15858459903,火锅店,50117,64,留下街道留和路586号1-1,120.01237548635403,30.211356133831497
B0K3USPM6X,梅溪徐记·鲜牛肉火锅(西溪天街店),4.6,15381107101,火锅店,50117,114,金色西溪·B座(蒋村地铁站出入口步行490米),120.06411695769899,30.293906364230537
B0LUK5VKIW,海伶山珍菌汤馆,4.5,15372599881,火锅店,50117,127,天目山路398号天目里12号楼1层1032层gaga旁边,120.09503611280971,30.269207663703618
B0FFL1D4J0,老房火锅(黄龙恒励大厦店),3.6,15356660808,火锅店,50117,131,黄龙路5号黄龙恒励大厦F1层,120.13147805185984,30.271570913862785
B0L37LMC7L,陸记•小镇南街牛肉汤火锅店,4.1,15356158177,火锅店,50117,91,转塘街道美原商业中心2号楼201,120.06992119699329,30.152814581955564
B0FFMHEOO0,巡山令酸汤牛肉火锅(黄姑山路店),4.7,15336595606,火锅店,50117,111,黄姑山路48号拓峰科技园15幢106-107室,120.12911075998996,30.278365047268004
B0K0SHSH3L,刘一勺·贵州酸汤牛肉火锅(浙大紫荆港店 ),4.7,15336545906,火锅店,50117,100,盛龙街浙港国际一号楼127号,120.088208251211,30.310776777888236
B0FFFCOM75,西溪丽锅·牛肉海鲜火锅·新浙菜,4.6,15336500777,火锅店,50117,180,文二西路西溪国家湿地公园慢生活街区C218号,120.06521673438041,30.277128686176024
B0GK5DA814,谊香秦院农家炒菜,4.1,15268188177,火锅店,50117,88,长埭村健身游步道北侧,120.03971852153403,30.169946935165935
B0J2CB2LUL,哪吒捞海海鲜火锅(亚厦中心店),4.1,15261523961,火锅店,50117,90,白金汉爵酒店内,120.10339490401753,30.173077660773952
B0G12BJESF,牛哄烘鲜牛火锅(袁浦店),4.1,15258889959,火锅店,50117,81,双浦镇袁浦街93号,120.12294512093665,30.11963461983388
B0JDBAH6DG,刁四麻辣香锅•麻辣烫(龙湖西溪天街店),4.4,15236743037,火锅店,50117,27,蒋村街道双龙街花蒋天街商业中心5号楼1楼114室,120.06310355597329,30.29459163735586
B0LRTA9R2A,黄手艺冒菜,4.1,15158856988,火锅店,50117,30,翠苑街道黄姑三路55-2,120.12867571064835,30.27857245252427
B0GR5A37SF,黄牛肉馆(益乐新村北区店),4.2,15024484173,火锅店,50117,49,西斗门路85号,120.10333271703553,30.292081418136778
B0L14B0JVW,冒胖子·火锅冒菜(西湖店)(暂停营业),3.9,13997133318,火锅店,50117,22,厚仁路与荡鱼街交叉口西南60米,120.07395183373859,30.333996587921618
B0K1BSRX5M,郭淑芬鲜切牛肉自助老火锅(万塘汇店),4.5,13967117379,火锅店,50117,75,万塘路262号烟火万塘生活广场内街,120.12012453063161,30.280992077655334
B0GRDBEHK1,中国凉都黄牛肉馆(古荡店),4.6,13819158219,火锅店,50117,79,古荡街道益乐路39号蓝海时代大厦1幢s11室,120.10848513868572,30.281968170014988
B0LGALNFZR,林小鹿火锅麻辣烫·鲜切牛肉(古墩路店),3.9,13738104062,火锅店,50117,27,西溪路588号1珀莱雅美帆广场1层112号商铺,120.09824877870288,30.264949489390823
B0LGBH5EYQ,牛客官潮汕牛肉火锅(三墩新天地店),3.4,13738008446,火锅店,50117,,三墩镇厚仁路303生活广场B座二楼,120.0729168091918,30.336130211903765
B0MBBZVZI3,仟仟多乐牛肉小火锅,3.9,13721111406,火锅店,50117,57,古墩路1009号龙湖杭州紫荆天街B1层,120.08675534649973,30.323390549968455
B0LKJU1UV7,你好·云上云南山系自助火锅(西湖店),4.6,13721100788,火锅店,50117,85,奥莱金街4幢2层226号,120.06511989565995,30.14663532014892
B0LD2AN6HL,九街幺妹老火锅(三墩店),4.5,13685779338,火锅店,50117,80,甲来路11号,120.062063484679,30.339043384916298
B0LAJAONSK,张亮麻辣烫(杭州铂悦城店),3.7,13674606866,火锅店,50117,30,留下街道屏新路27号铂悦城10号楼1层10-105-02号,120.04398642147233,30.230752569688544
B0FFF3TCLG,老四川火锅(望月公寓店),4.3,13656632786,火锅店,50117,62,望月公寓46号,120.08593289147132,30.31208026138049
B0FFKE8YB7,志明鸡公煲(古敦路店),4.3,13588367911,火锅店,50117,57,古墩路266号(近紫金小区),120.09563869725883,30.280911592766973
B0FFJOQHH2,明明羊汤饭店,4.4,13575708161,火锅店,50117,80,良户家苑西门旁,120.09184095874636,30.13236575815393
B0LKD1OE4I,老北京铜锅涮肉,3.6,13575453333,火锅店,50117,,古墩路700号(虾龙圩地铁站D口步行120米),120.09234411808367,30.31166608758872
B0JRT72J4I,潮汕叶记鲜牛肉火锅(华星时代广场店),4.5,13411918838,火锅店,50117,90,华星时代广场B座北门103号(文三路地铁站D3口旁),120.11966068682864,30.279694723632534
B0K2N408DU,重庆·老街摊摊火锅,3.9,13385206905,火锅店,50117,57,小和山新苑八区3-14二楼,120.0271964804959,30.21953031916777
B0J1HUCGZ3,禧满牛贵州黄牛肉馆.干锅火锅(浙大紫金港店),4.7,13375813085,火锅店,50117,57,古墩路658号(虾龙圩地铁站C口步行280米),120.09246343941852,30.309044402977378
B0JRDNTE1B,牛潮汕牛肉火锅(西港新界店),4.1,13247527841,火锅店,50117,70,振华路284号,120.06418211322641,30.315028789223074
B0K62CAKFI,刘一勺·贵州酸汤豆米牛肉火锅(转塘店),4.5,13185073555,火锅店,50117,88,霞鸣街157号西北方向40米万美商务中心,120.06543285347033,30.14504896695996
B0L2FZ272X,牛厂鲜肉火锅店,4.3,13067938038,火锅店,50117,74,双浦镇云浦佳苑一区东门3幢108室,120.08669948014312,30.121650923174556
B0LR254OEX,伊山河斑鱼粥火锅(之江银泰百货店),4.2,13067758837,火锅店,50117,98,珊瑚沙路之江银泰百货4层4005号,120.09756816304088,30.169273046574705
B0FFLJO84Z,左庭右院鲜牛肉火锅(龙湖西溪天街店),4.5,13023207061,火锅店,50117,133,"余杭塘路蒋墩路交汇口杭州西溪天街A-6F-07,A-6F-08",120.06386990601379,30.296332420527126
B0JAPZW1IC,呷哺呷哺(杭州龙湖西溪天街),4.5,4008177878,火锅店,50117,60,余杭塘路1001号龙湖杭州西溪天街5F层,120.06471343401967,30.29579038329917
B0KK2UIV9E,脆鱼记·中山脆鲩鱼火锅(杭州总店),4.6,,火锅店,50117,114,万塘汇262号(文三路地铁站D3口步行180米),120.11968964319166,30.28090963280291
B0LKKZN0P7,钱多多鱼头火锅(万塘汇店),4.0,,火锅店,50117,78,万塘路262号创富港(文三路地铁站D3口步行190米),120.11964254922803,30.28088058701967
B0L1M7HTDB,焱合里自助火锅(暂停营业),3.9,,火锅店,50117,71,翠苑街道文一路296号1幢3F-商铺,120.1185475040006,30.29063846692286
B0FFIS2XY2,潮牛海记潮汕牛肉火锅店,3.8,,火锅店,50117,92,万塘路28号(文三路地铁站D1口步行320米),120.1203994887366,30.276400818434364
B0JD27UWUJ,撩鲜围煮潮汕鲜牛火锅工厂店,3.8,,火锅店,50117,81,文三路235号立元大厦观光电梯2楼205室,120.13215607940879,30.27917213493538
B0M6LC747Z,SPA地摊串串火锅,3.8,,火锅店,50117,52,余杭塘路1001号龙湖杭州西溪天街5号楼,120.06285962155007,30.29576383883964
B0LGSR371A,七口辣·一人食火锅(杭州紫金港店),3.6,,火锅店,50117,28,浙港国际东门西50米(虾龙圩地铁站B口步行480米),120.08825721142668,30.31159166626976
B0LR7CJ4VJ,釜悦部队火锅坊,3.5,,火锅店,50117,,丰潭路601-6号-1,120.09826295966835,30.309982766435834
B0M6OSKZCR,潮牛甲第·潮汕牛肉铺(转塘店),3.3,,火锅店,50117,,洙泗路347号(美院象山地铁站D口步行400米),120.0771611145535,30.153012114607957
B0L0YA6306,小火锅,3.3,,火锅店,50117,,浙江大学玉泉校区三食堂1楼西南角,120.12061460219631,30.2685337845511
B0LKNXRE6O,游尘醉巴蜀冀忆地摊火锅(龙湖西溪天街店),3.2,,火锅店,50117,,余杭塘路1001号龙湖杭州西溪天街5号楼,120.06211023346923,30.29477098222279
B0IKMCM4WE,新香辣海鲜火锅,3.2,,火锅店,50117,,文一路辅路与万塘路交叉口北120米,120.11909958273138,30.291037979021844
B0L2F71H25,炰鼎牛,2.9,,火锅店,50117,96,云州国际b1云州优选餐厅内,120.09573278872682,30.269177724612558
B0MBGR3IW2,落秋·牛羊虾蟹煲(文一西路店)(暂停营业),2.9,,火锅店,50117,27,文新街道嘉南公寓(金成·嘉南公寓西)金成·嘉南公寓,120.08867637826336,30.289238136939044
B0MBYG4K6L,高员外美蛙鱼头,2.9,,火锅店,50117,,望江山路与象山沿山南渠绿道交叉口西北140米,120.06409007392143,30.151794507768688
B0M62DV5B1,牛场火锅,2.9,,火锅店,50117,,灵美路与梦蝶街交叉口东北80米,120.0731896000893,30.150269444439537
B0K2D9GKFQ,潮汕牛肉火锅,2.8,,火锅店,50117,,教工路与黄姑山横路交叉口西南80米,120.13087816854626,30.2765226143186
B0L057U8GT,艾尚串串屋摊,2.8,,火锅店,50117,,白龙潭路与上城埭路交叉口西北20米,120.04259250140697,30.184912006676505
B0MBAC9WXX,湘渝串串香,2.7,,火锅店,50117,,盛龙街与古墩路交叉口东100米,120.09264137815157,30.31148609715577
B0M6D76SB9,牛一族黄牛肉火锅(浙大紫金港店),2.5,,火锅店,50117,,浙港国际东南门西90米,120.0874017886159,30.310657994295802
B0L3OZYD2Y,叁姐火锅米线(小和山大学城店),2.3,,火锅店,50117,,留和路与高教大道支四路交叉口西南180米,120.02556484657373,30.221292534570605
B0MBUUMMSH,闽南特色火锅,1.7,,火锅店,50117,,文一西路辅路与丰潭路交叉口东南80米,120.10347421774469,30.288445866261206
B0LKTHW67M,东北涮肚地摊烤肉,1.4,,火锅店,50117,,嘉仁路与灯彩街交叉口北40米,120.07415235661864,30.327597303963984
B0HB2ZWUKL,沙县小吃(联合大厦B座店),4.1,19157798433;19357215372,特色/地方风味餐厅,50118,15,古荡街道紫荆花路2号2幢102室-1,120.0930933669855,30.26915061818395
B0FFFA7WWE,阿志烧烤王(文三路总店),4.3,18358124182;18579067969,特色/地方风味餐厅,50118,54,文三西路630号皇朝花园内(古墩路紫荆花路间),120.09147528870362,30.278117852993894
B0KA4HZQ0I,昆漠新疆手抓饭(杭州西湖店),4.3,18357205183;19357390831,特色/地方风味餐厅,50118,50,文三路459号B座108室,120.12231332461448,30.27881266918746
B0L31XWO73,忠叔小馆,4.0,18267119968;19032009952,特色/地方风味餐厅,50118,20,新时代陶瓷西门东南60米,120.08912378492923,30.31128152185447
B0FFIBP15Y,安徽料理(骆家庄菜场店),3.8,18258450102;18655523054,特色/地方风味餐厅,50118,20,文一西路339号骆家庄农贸市场综合楼25,120.09493736835717,30.288591747979403
B0I1JRL8GK,东北手工水饺,3.8,17826808333;18329148555,特色/地方风味餐厅,50118,17,文三西路632一2号东北手工水饺,120.09143025229244,30.278137855016592
B0IDPUS3WN,新疆兄弟烧烤,4.2,17594994043;18868434745,特色/地方风味餐厅,50118,75,袁浦街117号,120.11969152213307,30.116638131029767
B0FFHFICX1,周记羊骨烧烤龙虾火锅(留下店),4.2,15990020200;18413259347;19558223154,特色/地方风味餐厅,50118,95,留下汇峰国际周记烧烤(留下地铁站C口步行220米),120.0464328558731,30.24154775627064
B0L2LAPE2Z,鲁邦烧烤(文一西路店),4.1,15967188575;18368129291,特色/地方风味餐厅,50118,71,文一西路425号鲁邦烧烤(文新地铁站C口步行410米),120.09209888640756,30.288600740578946
B0FFG8ZBFK,嵊州小吃(西斗门店),3.8,15958183669;18989493326,特色/地方风味餐厅,50118,17,西斗门路39号,120.10454638747078,30.29209795523011
B0FFG4ZMXN,草原烧烤(剑桥公社店),4.5,15924175175;15990123017,特色/地方风味餐厅,50118,70,申花路789号剑桥公社D座F1层,120.09024583233918,30.307970738355127
B0KB6A8UW0,烤匠麻辣烤鱼(龙湖杭州西溪天街店),4.6,15372066905;17799819275,特色/地方风味餐厅,50118,94,西溪天街商场5F(蒋村地铁站出入口旁),120.06443761579567,30.295600759850515
B0FFG8ZBCM,沙县小吃(三坝巷店),4.0,15268846607;18066528547,特色/地方风味餐厅,50118,16,古墩路624号附近同人精华3座附近,120.09526336649793,30.3039920548344
B0L12XVIYH,王老笨·东北过桥米线(龙湖杭州西溪天街店),4.5,15201382410;17731501151,特色/地方风味餐厅,50118,20,西溪天街3号楼117室王老笨东北过桥米线,120.06434175821666,30.294616992978657
B0H27YUP6G,衢州吴记私房菜(紫金名门店),4.3,15168317209;18858280150,特色/地方风味餐厅,50118,50,海味嗨街10号楼104,120.07942202732995,30.320971257665388
B0L23C4P1N,桥头煎饺(转塘店),4.6,15157285912;18857121071,特色/地方风味餐厅,50118,45,之江国家旅游度假区转塘街道创意路和象山路交叉口西侧100米,120.0691713397526,30.15423134473096
B023B189CI,红烧鱼头(青芝坞店),4.2,15157198892;18758581371,特色/地方风味餐厅,50118,80,灵隐街道玉泉社区青芝坞26号,120.11776351738644,30.260280611206447
B0FFK720BN,阿伟烧烤(转塘店),4.8,15088697158;15868458915;19567252023,特色/地方风味餐厅,50118,78,转江路200号122,120.06632094937099,30.1618733933557
B0L0JNEPLW,严州唐府·辣道建德,4.3,13989466743;18905814655,特色/地方风味餐厅,50118,44,清池路与灯彩街交叉口南100米,120.06510572189336,30.32485732186322
B0J0SSBQI7,老东北水饺(景顺铂悦城店),3.9,13943209668;15948556688,特色/地方风味餐厅,50118,17,景顺铂悦城,120.04403638277213,30.230302494052356
B0FFGMAT42,农夫渔家莊(汇禾领府店),4.5,13805777344;18072758500,特色/地方风味餐厅,50118,91,紫宣路279号汇禾领府6号楼(君尚国际广场对面),120.06587030922385,30.324720385176683
B0FFKFMAO1,香锅烤鱼家常菜,4.1,13777569228;18413259389,特色/地方风味餐厅,50118,67,灵隐街道青芝坞66号,120.1160241318866,30.260438965904033
B0L22AZPSN,龙坞烤全羊(杭州总店),4.7,13758254913;19511254913,特色/地方风味餐厅,50118,151,轮渡路27号附2号,120.10756200668838,30.124866069601964
B0FFG4CMW5,老杭州馄饨(剑桥公社店),3.9,13735531282;15958009112,特色/地方风味餐厅,50118,20,申花路769号剑桥公社E-12,120.0904439590918,30.30814569005634
B0LBLYKCU2,那拉提之疆·新疆菜(美院店),4.6,13675874035;18267133131,特色/地方风味餐厅,50118,88,博美路24号那拉提之疆餐厅,120.0705732662697,30.161351649466237
B0M6RZYWBQ,绝味鸭脖(西溪花园·白荻苑店),2.9,13656644262;18258467606,特色/地方风味餐厅,50118,34,西溪花园崇义路81号,120.05715602942114,30.287431202699505
B0FFG74U2B,特色碳烤羊腿·龙虾,4.4,13567179648;15988859532,特色/地方风味餐厅,50118,83,文三西路638-7号(五联西苑南大门汉庭酒店旁边),120.09036546463717,30.27810097884958
B0FFI6Z2PU,阿萍面馆(城西店),4.3,13505717595;18357122983,特色/地方风味餐厅,50118,19,文二西路669西溪智慧大厦1楼,120.08370744302289,30.282596428317007
B023B1H0SM,大清谷半日闲户外烧烤(清谷路店),4.4,13372501786;13567104668,特色/地方风味餐厅,50118,97,转塘街道大清村清谷路66号,120.06496577153452,30.20796814105344
B0HDMZUNRE,吉祥馄饨(云潮美誉商务中心店),4.0,13136113589;13735828673,特色/地方风味餐厅,50118,23,之浦路云潮美誉2幢101,120.10416505842575,30.171888040301592
B0GUBCN59J,张亮亮麻辣烫·麻辣拌(西溪路店),4.1,13095799950;17768304670,特色/地方风味餐厅,50118,28,留下街道东岳街6-3号1楼室,120.08719201855254,30.25967631902193
B0FFHCEF96,邵师傅牛杂(三墩店),4.6,13082820173;18767164133,特色/地方风味餐厅,50118,81,三墩镇厚仁路298号,120.07511975790527,30.33357165815858
B0FFMCXXG1,牛一把烧烤(古墩路店),4.4,13073655189;18604658488,特色/地方风味餐厅,50118,74,古墩路362号,120.09499078587002,30.284284199438872
B0HRRCVJFL,千里香馄饨王(环城西路店),4.2,13018961769;18760508591,特色/地方风味餐厅,50118,14,环城西路55号(武林门地铁站E口步行130米),120.15002667599596,30.273527384234878
B0M6C5VXVB,沙县小吃(蒋村花园兴达苑店),3.4,0571-88915263;18659422290,特色/地方风味餐厅,50118,16,文二西路睛川街蒋村花园兴达苑53号,120.07773782088907,30.2860464702902
B0FFIQDQC5,老浦土菜(文一西路店),4.5,0571-88523179;13750847265,特色/地方风味餐厅,50118,87,文一西路321号四楼(文新地铁站C口步行380米),120.09525266859352,30.288592770260955
B0FFHRR0XD,三喜馄饨(墩莳家园店),4.2,0571-88027852,特色/地方风味餐厅,50118,17,三墩镇甲来路27号,120.06213139277993,30.339544216863846
B0KULUX2MU,仁义厨,4.5,0571-87997979,特色/地方风味餐厅,50118,81,厚仁路三墩新天地商业中心6幢204,120.07522874896935,30.333595565522835
B0FFFA72ST,乐回头饺子店,4.5,0571-87972009,特色/地方风味餐厅,50118,21,天目山路131号(杭大路口),120.1367261471268,30.27353438173156
B0G269O8LG,林家一·西湖小馆,4.7,0571-87967777;17300918885,特色/地方风味餐厅,50118,205,西湖景区三台山路190号,120.1255212677312,30.232976210886253
B0FFFLJQQ9,三喜馄饨(同仁家园金河湾店),4.3,0571-87257130,特色/地方风味餐厅,50118,20,公平路332号(同仁商业街D区114号),120.07409834593155,30.32779632356459
B023B0BCN9,王记·金图门串烤(丰潭路店),4.6,0571-86941549,特色/地方风味餐厅,50118,96,丰潭路282号(近文二西路),120.10422348044266,30.285697483213845
B0KUGCUOQG,我家友菜,4.5,0571-85222233,特色/地方风味餐厅,50118,151,玉古路138-1号,120.12157924941432,30.261204475854754
B0H0TGO7F1,老乡鸡(杭州西港新界店),4.4,0571-83526550;15205505247;4007661777,特色/地方风味餐厅,50118,26,西港新界西一楼,120.06135710720707,30.314487718394986
B0JDRUI6PD,老乡鸡(杭州金街美地店),4.5,0571-82711572,特色/地方风味餐厅,50118,26,镇中路金街美地1号楼105室-9商铺,120.07386956215693,30.149530857079355
B0FFKKBXC7,温州海鲜黄牛排馆(303生活广场店),4.5,0571-56818937;0571-88958929,特色/地方风味餐厅,50118,133,三墩镇厚仁路357-367号303美食广场B座一楼,120.07296483818982,30.335691230719437
B0IKGA2W45,老陈大排档烤鱼烧烤(和安居店),4.5,19985576411,特色/地方风味餐厅,50118,103,三墩镇和安居44幢109,120.0454019008757,30.317414310098048
B0JAXS2W24,木屋烧烤(紫荆北路外卖店),4.4,19967331735,特色/地方风味餐厅,50118,105,龙致商业中心1号楼108室,120.0859051938694,30.320091253040545
B0LU61LJFR,樟荣·沙县手工小吃(友知弄店),3.5,19967321031,特色/地方风味餐厅,50118,18,古荡街道友知弄16号,120.11213016632988,30.294182421679583
B0KADYUG60,北丐先生•野馄饨烧烤(西溪龙湖店),4.8,19357699100,特色/地方风味餐厅,50118,28,余杭塘路1001号,120.0636331077467,30.295747799254443
B0L167SMRJ,宋小样·锦州烧烤(紫金港店),4.5,19357632769,特色/地方风味餐厅,50118,57,申花路759号剑桥公社E座,120.09054903358594,30.30816267428701
B0L2K1GTZK,沙县小吃(西投银泰城店),4.1,19357312109,特色/地方风味餐厅,50118,16,云河街108号8,120.10078256784966,30.149103452383006
B0J6A6PX15,小渝儿正宗重庆麻辣烫(文鸿金座店),4.2,19211847896,特色/地方风味餐厅,50118,22,黄姑山路57号文鸿金座(文三路地铁站A口步行370米),120.12859152360221,30.27843135582769
B0FFFA8AHT,樟荣·沙县手工小吃(文二路店),3.9,19157909157,特色/地方风味餐厅,50118,18,文二路474号,120.11543595917219,30.284732156743615
B0IDF97N6D,膳当家(怡泰大厦店),4.1,19157683001,特色/地方风味餐厅,50118,28,古翠路与华星路交叉口北40米,120.11505650723646,30.28168313259159
B0LG776G2B,阿胖煎饺(古荡新村西区店),4.5,19157656186,特色/地方风味餐厅,50118,22,古荡新村西西门北110米,120.10833922440895,30.278244448901603
B0L0F98BRV,弈小白餐厅,3.1,19057284368,特色/地方风味餐厅,50118,31,紫金生活广场,120.06550394555373,30.343004247978385
B0L35ZE2H8,餐中仙,4.4,19057167737,特色/地方风味餐厅,50118,20,文三路408号中电·万谷,120.1217068859204,30.280510827286044
B0M6FZXDJG,袁记云饺(西湖区西斗门新店),3.7,19032001488,特色/地方风味餐厅,50118,23,西斗门路150-1号,120.10595538486946,30.292436619079457
B0L6OHB2Q2,烤匠麻辣烤鱼(杭州西投银泰城店),4.5,18969903569,特色/地方风味餐厅,50118,65,枫桦路9号西投银泰城L4028-L4030号,120.09798932333335,30.149160740424644
B0JUKC2TYW,刁四麻辣香锅•麻辣烫(龙湖紫荆天街店),4.2,18888700468,特色/地方风味餐厅,50118,22,杭州龙致商业中心3号楼107-108室,120.08620522289772,30.321496970539286
B0FFHUADZH,阿峰烤鱼香辣馆(文三西路店),4.4,18868833356,特色/地方风味餐厅,50118,58,文三西路630-4号,120.09154934454789,30.278134844978602
B0JKMDL0QT,周素珍传统馄饨(西园路店),4.4,18868830272,特色/地方风味餐厅,50118,20,西园三路10号迪威科技园,120.05947495807429,30.310540969958197
B0K3YD942U,诸葛烤鱼(同人精华大厦店),4.3,18868744354,特色/地方风味餐厅,50118,58,古墩路616号同人精华(三坝地铁站B2口步行290米),120.09487292983947,30.30475693753086
B0LR4HPLTF,秀才娘子云南鲜花过桥米线,4.2,18857879922,特色/地方风味餐厅,50118,20,文三路56-1号(沈塘桥地铁站E口步行100米),120.14293918772104,30.280323595821056
B0LA2AG2UQ,袁记云饺(龙湖西溪天街店),4.5,18857545999,特色/地方风味餐厅,50118,23,蒋村街道花蒋天街商业中心10号楼108室,120.06349023618098,30.29533203578751
B0I2HOBEIP,爱口福东北特色水饺(丰盛九玺店),3.6,18812167110,特色/地方风味餐厅,50118,17,丰盛九玺西门旁池华街地铁站C口步行160米,120.06481040996225,30.330514924923854
B0JRPHLF3G,袁记云饺(杭州市西湖区万美商务中心店),4.4,18806536540,特色/地方风味餐厅,50118,23,万美商务中心5号楼110号,120.06512101514211,30.145220355117072
B0GRGOT5OF,喜羊羊烧烤(晴川街店),3.9,18805618881,特色/地方风味餐厅,50118,70,蒋村街道文二西路738号1006室喜羊羊烧烤烤鱼,120.07695598749513,30.283650280585128
B0KDDR6CPD,袁记云饺(杭州市西湖区浙江科技大学店),4.2,18668882545,特色/地方风味餐厅,50118,23,留和路与高教大道支四路交叉口西南160米,120.0273769817606,30.22088276363456
B0GRHRZ2RA,建德老杨炭烤鸦片鱼尾(三墩店),4.5,18667112266,特色/地方风味餐厅,50118,93,清池路汇禾领府西15号(狮城大院对面),120.06602124079429,30.324581218315927
B0KRG1CM89,沙县小吃(蒋村花园如意苑店),4.0,18659893399,特色/地方风味餐厅,50118,16,晴川街87号,120.07649475136874,30.286328350367118
B0LA9RS7MV,福建馄饨沙县小吃,3.3,18659853102,特色/地方风味餐厅,50118,22,林达科技沙县小吃,120.05825875468771,30.313728438605057
B023B17G6U,北京片皮烤鸭(紫金港店),4.1,18658195211,特色/地方风味餐厅,50118,28,三墩镇紫蝶苑10号楼206室,120.07939903171001,30.320878284281044
B0K3F6E7W6,沙县小吃(杭大路店),4.3,18605981822,特色/地方风味餐厅,50118,20,杭大路与跑马场巷交叉口北40米,120.13673633411311,30.271629575925004
B0L37UL7OU,樟荣·沙县手工小吃(杭州古墩路店),3.6,18557525318,特色/地方风味餐厅,50118,18,文新街道文一西路307号骆家庄东苑,120.09461523503631,30.28661493685787
B0JB5L3M84,米厨荟餐厅餐厅(西湖广告大厦店),3.6,18506831156,特色/地方风味餐厅,50118,15,西园一路18号西湖广告大厦F1层,120.05894255142003,30.308969969846103
B0KDJRJ2U2,西塔老太太泥炉烤肉(西投银泰城店),4.5,18506822533,特色/地方风味餐厅,50118,134,转塘街道枫桦西路9号杭州西投银泰城,120.09874411308111,30.149734884413135
B0FFKQJW9D,吉祥馄饨(杭州青芝坞店),4.2,18268066296,特色/地方风味餐厅,50118,25,玉古路60号,120.11869638789713,30.260130542607865
B0L0R17D1Z,三姐夫自助手工水饺(金街美地店),4.5,18246178292,特色/地方风味餐厅,50118,22,金街美地商业中心3号楼121室,120.07328061149096,30.149960370342885
B0J6YPWGUD,新疆美味烧烤(奥莱金街店),4.6,18139165100,特色/地方风味餐厅,50118,78,双流路与霞鸣街交叉口北120米63号奥莱金街,120.06625430089052,30.146362919607743
B0GKYXLYJA,二烧(学院路店),4.4,18106554642,特色/地方风味餐厅,50118,19,学院路58号华星创业大楼F1层,120.12601566389425,30.277060206835827
B0JKAOGVBA,新疆兄弟烧烤(钱塘one店),3.7,18099737486,特色/地方风味餐厅,50118,61,钱塘ONE西南门北280米,120.11162836290015,30.151754164170057
B0FFGRO3DW,西湖云筑民宿,4.8,18072999429,特色/地方风味餐厅,50118,,九溪九龙苑27号-1,120.11105355907776,30.196960065983788
B0K6XSXP0O,弄口里烧烤(烟火万塘店),4.7,18072775872,特色/地方风味餐厅,50118,50,万塘路262号万塘汇商业广场南楼1层103室,120.11983293649915,30.280916780677437
B0LKMD5U2F,永和大王(紫金广场店),4.0,18069885978,特色/地方风味餐厅,50118,18,红星美凯龙世博家具生活广场1层A805,120.09049977798315,30.310740366949826
B0J6ASYC8X,品上食府,4.4,18058720339,特色/地方风味餐厅,50118,50,文新街道五联弄31号3号楼底商13(西城广场南),120.09113268964052,30.282079491977804
B0I1UX0XYL,杨国福麻辣烫(浙港国际店),4.2,18058109992,特色/地方风味餐厅,50118,25,三墩镇紫荆花城2号楼120室,120.08786900486548,30.31128579666086
B0IRDAL1Q4,吉祥馄饨(珀莱雅美帆广场店),3.9,18057147209,特色/地方风味餐厅,50118,27,珀莱雅美帆广场1层107,120.09814368734054,30.2646594935727
B0I339ZA39,新疆买买提烤肉王,4.5,18016955999,特色/地方风味餐厅,50118,85,望月公寓东3门南50米,120.08618586099328,30.313909950445137
B0LR29602E,椒點麻辣烫(浙大森林店),4.1,17799809973,特色/地方风味餐厅,50118,27,西园八路3-8号-1,120.05881550748747,30.310790942087564
B0G1Y5UGG2,汝拉•西溪哩(西溪湿地福堤慢生活街区店),4.7,17767052866,特色/地方风味餐厅,50118,114,蒋墩路与文二西路交叉口西溪湿地北门福堤慢生活街区C1-20号,120.06668099346444,30.27668392965469
B0KRCOBAXM,炙烤拾光烧烤 烤鱼 小龙虾(西投云潮中心店),4.5,17764563456,特色/地方风味餐厅,50118,105,双浦镇西投银泰云潮中心11号楼1层底商25号,120.09978339186848,30.148797168589816
B0I0K70Z32,西塔老太太泥炉烤肉(龙湖杭州紫荆天街店),4.5,17757120053,特色/地方风味餐厅,50118,145,三墩镇古墩路1009号龙湖杭州紫荆天街L5层L5-07,120.08694746764118,30.323181521478034
B0LKXHNB9U,固始土鹅锅(都市阳光店),4.3,17714878138,特色/地方风味餐厅,50118,48,三墩镇金庄路308号,120.06384185828969,30.343907247636036
B0KG1B3T20,郑恩强麻辣烫(文一西路店),4.2,17705810456,特色/地方风味餐厅,50118,20,汉象/图书·音乐酒店北门旁,120.11112884867563,30.28940219046499
B0FFHGHCV1,沙县小吃(庆隆路),4.0,17605988855,特色/地方风味餐厅,50118,14,庆隆路18号(翠苑三区附近),120.11832469248252,30.294952776933837
B0FFHG4RHX,福建正宗沙县小吃(毛家桥店),3.6,17513711450,特色/地方风味餐厅,50118,20,毛家桥路38号(近金色蓝庭公交车站),120.11099753215393,30.29050497774068
B0L0PD0DC7,牛正焱·汕头牛肉饭(三墩店),3.2,17367115936,特色/地方风味餐厅,50118,16,吉园街36号西投绿城春树云筑,120.0694540671331,30.320552802178568
B0L22R04XN,滇幺妹云南烧烤(剑桥公社店),4.5,17366626650,特色/地方风味餐厅,50118,75,三墩镇申花路剑桥公社D座4幢9号,120.08998965396381,30.30794877875036
B0L1XLSCEV,牛当家烧烤(杭州总店),4.4,17364564862,特色/地方风味餐厅,50118,67,三墩镇金庄路269号1-4号裙楼一层107室,120.06595367143458,30.343353638677264
B0JD0SUAUL,魏名府地锅鸡地锅鱼(紫金生活广场店),4.3,17357187958,特色/地方风味餐厅,50118,65,金庄路269号紫金生活广场裙楼109室,120.06612858517796,30.343283434931855
B0KAKKKBS0,郑恩强麻辣烫(龙湖杭州西溪天街店),4.3,17357164678,特色/地方风味餐厅,50118,21,余杭塘路1001号龙湖杭州西溪天街4号楼108,120.0640119525335,30.29473641058622
B0KKP175HB,纪小媛闽南牛肉,4.6,17354734990,特色/地方风味餐厅,50118,88,开物创新大厦B座1楼(剑桥公社对面),120.09057997475689,30.309115554987788
B0HKHSATNF,袁记云饺(杭州市西湖区西溪华府店),3.9,17328872883,特色/地方风味餐厅,50118,23,西溪华府商铺2-107,120.05025123542126,30.293590578418602
B0FFJ1BKQV,张姐东北饺子馆(象山国际广场店),4.4,17117723333,特色/地方风味餐厅,50118,50,灵美路象山国际广场2号楼一楼4号,120.07427024869948,30.152654422865997
B0FFHXP93V,财勤烧烤,4.1,15958130120,特色/地方风味餐厅,50118,43,双浦镇袁浦轮渡路6号,120.12383385624132,30.122052603205614
B0IAG58LLK,河间府驴肉火烧(星光汇店),4.3,15933296063,特色/地方风味餐厅,50118,29,星光汇博美路20号,120.07061126481092,30.1612356141857
B0JDJPZCO5,蒲幺哥.万州·烤鱼(龙湖杭州西溪天街店),4.2,15925935487,特色/地方风味餐厅,50118,71,蒋村街道余杭塘路1001号龙湖杭州西溪天街10号楼一层106号,120.06346525714015,30.295278075144967
B0LAXR4LW6,回味黑鸭煲·始于 2006(龙湖杭州西溪天街店),4.7,15900246006,特色/地方风味餐厅,50118,96,西溪龙湖天街5楼回味黑鸭煲,120.06477243750993,30.295340357610765
B0IDMUXKQR,杨国福麻辣烫(天目里店),4.4,15879167779,特色/地方风味餐厅,50118,31,古墩路与古科园东路交叉口紫创商务中心2幢127-128号,120.09521619620638,30.27024558134635
B0FFKPZXOA,红恩小吃(西溪路店),4.6,15868993299,特色/地方风味餐厅,50118,42,西溪路75号西溪路75号院,120.13904940088626,30.27176814375669
B0LU3ZAAJU,杨国福麻辣烫(西湖杭荟城店),4.2,15825799832,特色/地方风味餐厅,50118,35,转塘街道杭荟城7-101,120.07111713156081,30.161113105903475
B0KUKU9GFK,杨国福麻辣烫(铂悦城店),3.9,15825558678,特色/地方风味餐厅,50118,25,屏新路27号铂悦城金街10号商铺,120.04316671699841,30.230535327589394
B0HUSZLNHH,沈氏牛肉汤(云潮美誉店),4.0,15800467871,特色/地方风味餐厅,50118,32,云潮美誉商务中心3幢108室,120.10381162204396,30.17129090404823
B0HK0ANL2S,云焰云南烧烤(华星发展大厦店),4.6,15799995858,特色/地方风味餐厅,50118,102,文二路322华星发展大厦B座,120.12137379531798,30.28505800195483
B0FFGY7HK0,元宝饺子铺(骆家庄东苑店),4.1,15715764447,特色/地方风味餐厅,50118,17,蒋村街道骆家庄菜场2号楼9号,120.09516358400957,30.28858376444907
B0LKH7QG5Q,洪兴老邮差东北老式麻辣烫,4.2,15558132219,特色/地方风味餐厅,50118,30,古荡街道古荆弄36号,120.09553650610124,30.270240608439217
B023B1DV2U,樟荣·沙县手工小吃(学院路店),4.1,15558042206,特色/地方风味餐厅,50118,18,翠苑街道学院路216号学院路地铁站C口步行190米,120.12476495736101,30.28752762840956
B0KBKK9MJC,新疆兄弟烧烤(同仁家园店),4.2,15509047604,特色/地方风味餐厅,50118,72,同仁家园金河湾西南门南50米,120.07414535315627,30.327647303197693
B0LUJZ9DM4,泮芳春煎饺(益乐路店),4.7,15397057910,特色/地方风味餐厅,50118,16,益乐路39号蓝海时代国际大厦写字楼F1层,120.10913413972166,30.282395541150073
B0LD1RL55T,八方烤鱼烧烤,4.4,15372596928,特色/地方风味餐厅,50118,55,剑桥公社D座4幢3号,120.0901257512734,30.30792576110743
B0KGFUZ3KI,袁记云饺(青山智汇城店),3.7,15356181916,特色/地方风味餐厅,50118,30,杭州市临安区青山智汇城1幢121-122室,120.08581312000936,30.32043123976428
B0FFGXF4AX,绝味鸭脖(崇义路店),4.1,15336560912,特色/地方风味餐厅,50118,28,蒋村街道西溪花园崇义路66号-2,120.05753869525404,30.28708262862197
B0K6YA2HFJ,浙大北门烧烤(紫金创业园B座店),4.3,15306588685,特色/地方风味餐厅,50118,55,三墩镇石祥西路859号紫金启真大厦3号楼101-12室,120.07130034394024,30.310644148932475
B0LRR7L9R7,吉祥馄饨(杭州黄龙C座店),3.7,15268819885,特色/地方风味餐厅,50118,20,学院路53号黄龙国际中心C座3层,120.12473677141425,30.277162640480206
B0FFMGTIFG,鱼米之乡东岳街(西溪路店),4.5,15267462486,特色/地方风味餐厅,50118,76,西溪路599号东岳街内大宅院旁边,120.08801948136356,30.259834091040595
B0FFG9328F,嵊州小吃(集萃路店),4.2,15258558818,特色/地方风味餐厅,50118,20,三墩镇集萃路25号,120.06919366196676,30.314695835033486
B0FFHK5KA5,老杭州馄饨店(古翠路店),4.2,15168405070,特色/地方风味餐厅,50118,17,翠苑街道古翠路116号(古翠路地铁站A口步行170米),120.11479271803742,30.28520354550368
B0FFIA7NW5,遵义羊肉粉(西荡苑·桃苑店),4.5,15158063536,特色/地方风味餐厅,50118,24,古墩路74-1号,120.09700379156996,30.27255157199311
B0J1Z67C9Y,杨国福麻辣烫(杭州数字信息产业园店),4.2,15157717002,特色/地方风味餐厅,50118,27,杭州数字信息产业园2期南门旁,120.05771470345591,30.32019346604093
B0L3OSXQXD,杨国福麻辣烫(小和山新苑店),3.8,15141134111,特色/地方风味餐厅,50118,25,留下街道小和山新苑8区2-7,120.0280995285257,30.219994928123327
B0KKL7IV1H,陶瓦里·小锅小灶(杭州首店),4.5,15070509537,特色/地方风味餐厅,50118,49,蒋村街道西溪银泰商业中心2号楼南楼112室,120.06962124397275,30.294382769908843
B0KRF9GGRZ,康记饺子馆,3.9,15064891345,特色/地方风味餐厅,50118,26,留和路522号翰墨香林(小和山地铁站B口步行350米),120.01457095882489,30.213135652612117
B0M6UAO73R,饺饺者煎饺,3.7,15024463799,特色/地方风味餐厅,50118,12,莫干山路545号,120.13983680335512,30.29191436404784
B0FFHUICLT,沙县小吃(翰墨香林店),2.7,15005941611,特色/地方风味餐厅,50118,20,留下街道留和路520号,120.01465175446093,30.213231413769567
B0HAHHIM07,艳红饺子,4.2,13989834772,特色/地方风味餐厅,50118,17,古荡街道莲花街187号,120.09876464461584,30.273310836761514
B0J6G5KI1B,李家炭烤(龙湖杭州西溪天街店),4.5,13968549540,特色/地方风味餐厅,50118,50,余杭塘路1001号龙湖杭州西溪天街F1层,120.06211214434127,30.295798865727463
B0FFI91ZX5,墩祥面馆,4.6,13968097869,特色/地方风味餐厅,50118,29,同仁家园北门,120.0711107095283,30.330358761809993
B0K1MHQDM3,好真记功夫面隆江猪脚饭(群升万国天地店),3.9,13860570870,特色/地方风味餐厅,50118,21,转塘街道群升商务中心9号楼1号商铺,120.09472010014154,30.159929022048438
B0HAYDYLEN,鲁智深自酿啤酒烧烤烤鱼吧(烟火万塘店),4.5,13858028807,特色/地方风味餐厅,50118,64,翠苑街道万塘路262号万塘汇一楼101保安亭隔壁,120.11946418591631,30.280867404631685
B0J3R72AF4,东北蒸饺菜馆云屉记杭州总店,4.7,13821220111,特色/地方风味餐厅,50118,25,古翠路58-2号,120.11544555650663,30.277902849312188
B0L11UL02S,吉祥馄饨(灵隐天竺步行街店),4.0,13819490516,特色/地方风味餐厅,50118,21,灵隐天竺佛缘步行街133号,120.1013254515135,30.240949256180123
B0HDCHITR4,杨国福麻辣烫(杭州西溪壹号店),4.2,13805708042,特色/地方风味餐厅,50118,24,文二西路808号西溪壹号创意商务中心27幢1层108-2号商铺,120.06299456223913,30.283664944285253
B0FFIXIKOF,活虾堂龙虾(文一西路店),4.5,13777849612,特色/地方风味餐厅,50118,76,文一西路426-428号,120.08796193245047,30.28933728886801
B0FFGETHXV,华园农庄·团建拓展·会议团餐·烤全羊·烤肉自助(大清谷店),4.6,13758225918,特色/地方风味餐厅,50118,104,清谷路57号,120.06487179917244,30.208287243719667
B0FFH59MT6,西溪家宴,4.5,13735825153,特色/地方风味餐厅,50118,74,留下街道大龙驹坞7-2.7-3,120.0800535560628,30.257457633769643
B0I2MCEZ07,齐齐哈尔烤肉·研究所(烟火万塘店),4.6,13735553124,特色/地方风味餐厅,50118,81,万塘路262号烟火万塘步行街里边(不是靠马路边哦),120.12029585946104,30.281293227772935
B0FFHDXELQ,飞爷私房牛腩麺(UN公社店),4.3,13735545207,特色/地方风味餐厅,50118,21,UN公社西南门西北70米,120.0445704162057,30.232071253952213
B0KDO5PJKH,塔哈尔(西投银泰城店),4.3,13711385579,特色/地方风味餐厅,50118,88,转塘街道枫桦西路9号西投银泰城区4F-4018(9号客梯直达),120.09919666765578,30.14927800388366
B0FFGHGOMQ,阿贵温州特色烧烤(石马社区店),4.6,13706613377,特色/地方风味餐厅,50118,55,留下街道石马新村64号(小和山地铁站A口步行440米),120.01795194721915,30.21201204027912
B0LG9YSYI1,张记东北手工水饺,3.4,13664656377,特色/地方风味餐厅,50118,20,三坝雅苑东北2门旁,120.0960778771906,30.307375731326665
B023B1DQDJ,东北饺子馆,4.1,13656665305,特色/地方风味餐厅,50118,25,莲花街199号,120.09865552727908,30.273241818599733
B0FFIS0D0R,骆家庄土菜馆,4.6,13588456754,特色/地方风味餐厅,50118,87,文一西路539号3楼,120.08855433880498,30.28880320915375
B0L0NZR7J6,小二哥烧烤,4.0,13588348633,特色/地方风味餐厅,50118,57,西溪路661号华泰人才公寓(西溪路分店),120.08312327579793,30.258625909518326
B0FFKYR66K,张亮麻辣烫(杭州翰墨香林店),3.8,13514511889,特色/地方风味餐厅,50118,30,留下镇留和路502-11号,120.01482622523896,30.214484838968012
B0JKOSKWPS,章诚素饺(西溪银泰店),4.1,13502444441,特色/地方风味餐厅,50118,23,蒋村街道双龙街588号西溪银泰城2号楼南楼307室,120.06956224020337,30.294667801566085
B0LAMCB5KQ,小辣椒·江西小炒(转塘店),4.5,13482278579,特色/地方风味餐厅,50118,44,美院南街89号小辣椒江西小炒(转塘店),120.07483625442313,30.151949963005393
B0LA9L1QU7,东北劲水饺馆(三墩店),4.3,13385817752,特色/地方风味餐厅,50118,13,龙致商业中心1幢109室(三墩地铁站C口步行500米),120.08584416205741,30.320115270457865
B0J1KC8WVG,新疆兄弟烧烤,4.1,13364897878,特色/地方风味餐厅,50118,65,三墩镇紫金上城1号楼384号,120.08586116178934,30.32021525168763
B0I0KD1QW4,兄弟烧烤(龙章路店),4.2,13338819555,特色/地方风味餐厅,50118,61,龙章路与春申街交叉口南60米,120.05328046714051,30.283133167344815
B0JRU70GVV,沙小龙沙县小吃(浙大森林店),4.3,13306518672,特色/地方风味餐厅,50118,21,西园八路1号,120.05822899051572,30.31128378863488
B0KAZCH1WE,袁记云饺(杭州市西湖区亚厦中心店),4.4,13290221737,特色/地方风味餐厅,50118,23,转塘街道沙秀路99号亚厦中心2号楼底商2号,120.10268792896186,30.17345735929307
B0MBSUE476,谷物对白低gi面道(西溪龙湖天街店),4.3,13282157713,特色/地方风味餐厅,50118,36,龙湖西溪天街5号楼双龙街218号,120.0627248050787,30.29470114062275
B0LDZ9VAVU,金麻吉厦门大排档,4.5,13221806879,特色/地方风味餐厅,50118,84,紫创商务中心(古墩路地铁站出入口步行380米),120.09418224780507,30.270058543000797
B0FFFLJQQT,陈记烧烤烤鱼大排档(同仁店),4.1,13216711975,特色/地方风味餐厅,50118,49,三墩镇同仁家园金河湾8栋103-2号同仁商业街地D区115号,120.07407333984904,30.327902330777096
B0LUSZZE63,幺妹云南烧烤(紫金生活广场店),4.5,13216711946,特色/地方风味餐厅,50118,75,紫金生活广场1号门东100米,120.06619254404747,30.343374343305918
B0JDJ5L87C,次坞打面(周坪路店),4.2,13185030880,特色/地方风味餐厅,50118,20,周坪路59号,120.06482046492567,30.341497335688533
B0FFFA8A3C,伊北味·清真青海拉面村(古翠店),4.3,13139031062,特色/地方风味餐厅,50118,28,古翠路116号第1层第2间,120.11481774136854,30.285475539067754
B0IDBDNEP9,很久以前羊肉串(西溪龙湖天街店),4.7,13093776080,特色/地方风味餐厅,50118,83,余杭塘路1001号龙湖天街B1层下沉广场,120.06339526086312,30.295773113917665
B0KRU7ZCC1,沙县小吃(星布智谷店),4.0,13018910675,特色/地方风味餐厅,50118,20,三墩镇金蓬街3号1号楼南楼沙县小吃,120.07365719054208,30.341977688560895
B0L32N2BOL,大辽国·沈阳野宵溜达串,4.4,,特色/地方风味餐厅,50118,93,申花路759号剑桥公社E座,120.09047999462868,30.308033698804632
B0KAURRNVQ,妞妞家烧烤(和安居店),4.4,,特色/地方风味餐厅,50118,59,和安居一期北1门旁,120.04743793594838,30.31776614386293
B0L2H5AZQT,刘文祥麻辣烫(西斗门路店),4.4,,特色/地方风味餐厅,50118,25,西斗门路22号,120.10539559739365,30.292102367391355
B0FFFS08MS,兰溪特色小吃(颐高广场店),4.2,,特色/地方风味餐厅,50118,29,黄姑山横路50号,120.1286988881441,30.27712062469351
B0LK0R9NZ2,沙县小吃(云谷智强科创店),4.2,,特色/地方风味餐厅,50118,16,三墩镇荆大路180号云谷智强科创中心1号楼129室,120.0323370435877,30.312339783290568
B0LAXC1GNL,绝味烧烤王,4.1,,特色/地方风味餐厅,50118,56,留下街道灵溪北路21号9幢56号,120.09479321166872,30.265354995809474
B0K1OC5DAD,程凤年杭州馄饨(之江艺墅荟店),4.1,,特色/地方风味餐厅,50118,12,睦邻社·之江艺墅荟,120.06643860672311,30.16520014328847
B0L035DJ0D,哒哒吖温州老鸭煲,4.0,,特色/地方风味餐厅,50118,50,古墩路658号1层116号,120.09238738303533,30.308974414929825
B0K3USW6L5,沙县小吃(汉象图文酒店),4.0,,特色/地方风味餐厅,50118,24,文一西路57号,120.11184207653548,30.289348724560355
B0FFH90PU5,东北饺子(西溪花园·紫菱苑店),3.9,,特色/地方风味餐厅,50118,61,崇义路20号-2,120.05755596646561,30.283712949342167
B0LAP7D41H,东北大馅水饺(荡鱼街店),3.9,,特色/地方风味餐厅,50118,22,慧仁家园南区西北门旁,120.07314196572649,30.333843332061612
B0L37ULZDM,碳火里徐州烧烤·烧烤·龙虾·海鲜(申花路店),3.8,,特色/地方风味餐厅,50118,59,申瑞国际1期(虾龙圩地铁站D口步行460米),120.0943620643039,30.309341362650844
B0HKXHN52E,沙县小吃(凌波路店),3.8,,特色/地方风味餐厅,50118,24,凌波路81号沙县小吃,120.0504208240777,30.284156259504773
B0LDCZRG32,盼丰年沙县小吃,3.8,,特色/地方风味餐厅,50118,20,西溪路393号(黄龙体育中心地铁站D口旁),120.12340241481193,30.270172731688852
B0HGROMWU7,沙县小吃骨头饭(马塍支路店),3.8,,特色/地方风味餐厅,50118,20,湖塍支路锦绣文苑2幢底商7号,120.14612137757939,30.276064358450657
B0FFH6WJQ8,台州小吃(鸡山路),3.8,,特色/地方风味餐厅,50118,,环山路1号象山人家,120.0501586810092,30.148632916272742
B0L3J5EHEW,蔡记蒸饺·杀猪菜馆(城西店),3.7,,特色/地方风味餐厅,50118,20,东海名仕家园东门北80米,120.09863521896368,30.288342306349236
B0J0HKTLVB,沙县小吃,3.7,,特色/地方风味餐厅,50118,18,周浦社区卫生服务中心北门旁,120.06866074776929,30.0927830876489
B0KRLZ3KBB,舒老黑自选餐厅,3.6,,特色/地方风味餐厅,50118,26,元茂大厦南门旁(古翠路地铁站B口步行80米),120.11273908711156,30.284151957679313
B0LAD57BNC,沙县小吃(古墩路店),3.6,,特色/地方风味餐厅,50118,12,古墩路沙县小吃266号(五联地铁站E口步行360米),120.09575481700531,30.280844610727055
B0M6XCT6RG,吉祥馄饨(西溪国家湿地公园店),3.5,,特色/地方风味餐厅,50118,23,西溪国家湿地公园内河渚街,120.06697198252431,30.275147731226838
B0LRHZ83BY,丰味沙县小吃(西园八路店),3.5,,特色/地方风味餐厅,50118,22,西园七路与西园八路交叉口西80米,120.056463141738,30.31747082833084
B0FFFEM0LA,夏茂沙县面馆(瑞鼎大厦店),3.5,,特色/地方风味餐厅,50118,14,三墩镇振华路200号瑞鼎大厦,120.06826989825215,30.31616967082906
B0LK753Y0C,淑明小炒店,3.3,,特色/地方风味餐厅,50118,,转塘街道东山里28号A幢42室,120.06326923869864,30.17962166972814
B0FFGY3SVR,北纬30度(蓝海时代国际大厦写字楼店),4.7,18758083088;19883232972,海鲜酒楼,50119,50,益乐路39号蓝海时代国际大厦写字楼F1层,120.10910711663057,30.282154547887348
B023B1A55X,旺角海鲜餐厅(五联店),4.4,18072720077;18757118188,海鲜酒楼,50119,121,文新街道民生综合体五联弄31号,120.09131181581324,30.282194462731233
B0FFIL8A78,渔百仓象山海鲜面(西溪银泰城),4.4,13082811188;18268811382,海鲜酒楼,50119,25,余杭塘路与崇仁路交叉口西溪银泰城地下一层铺位号BF038,120.07019790742956,30.296078974068102
B0FFFVSPE1,翔记渔庭(玉古路店),4.5,0571-89936807,海鲜酒楼,50119,85,玉古路168号(杭州市第十五中学),120.12398474907079,30.269516470389846
B0FFG50OQK,王氏大闸蟹(教工路旗舰店),4.1,0571-88889858;15856660356,海鲜酒楼,50119,,教工路1号,120.13142661485257,30.275254494556762
B0JK95DVWM,靓靓的海蒸汽海鲜自助餐厅(龙湖杭州紫荆天街店),4.5,0571-88880367;19357318978,海鲜酒楼,50119,134,古墩路1009号龙湖杭州紫荆天街L5层,120.0867493726929,30.32304659742976
B023B1DRG3,黄龙海鲜大排档(杭州总店),4.8,0571-88850007,海鲜酒楼,50119,160,玉古路178号(黄龙体育中心西门),120.12665059524437,30.271395536073477
B023B0BII6,德悦海鲜(杭州城西店),4.6,0571-88480507,海鲜酒楼,50119,159,古翠路108号,120.11509445061506,30.283185014073823
B023B14FYC,上味小海小鲜酒楼(保俶北路店),4.4,0571-88212708,海鲜酒楼,50119,98,保俶北路1-3号,120.14061329306908,30.275225303753228
B0H6YZ9BG3,铁定鲜乐清湾小海鲜,4.7,0571-88189279,海鲜酒楼,50119,143,西溪路588号美帆广场2层,120.09828282244638,30.26487850273007
B023B02O49,卜家野鱼馆·老杭帮菜(松木场店),4.5,0571-87969946;15268118537,海鲜酒楼,50119,77,保俶路161号1层,120.14198037237996,30.270745939677216
B0HKLCVRKJ,西湖桂花里·台州小海鲜,4.6,0571-87808177;18966160077,海鲜酒楼,50119,181,印象江郎餐厅古墩路店东门旁,120.09718359488608,30.2653322596778
B0FFHBMEA5,温州南麂岛海鲜城,4.4,0571-87757999;13588837679;13675888535,海鲜酒楼,50119,115,莫干山路491号香园饭店北楼1层,120.14073448976121,30.288646148771264
B0IRPD40HV,黄龙海鲜大排档(三墩店),4.7,0571-87567168,海鲜酒楼,50119,87,三墩镇新天地商业中心1214幢一层,120.0747166737651,30.33491580199345
B0FFHU0OIQ,华氏渔庄(之浦路店),4.6,0571-86650677;17816117271;18358177712,海鲜酒楼,50119,154,之浦路与枫桦路交叉口之江财富中心内,120.10483046989893,30.16623054606947
B023B17023,藏鲜工坊(莲花店),4.7,0571-86521777;0571-86580777,海鲜酒楼,50119,165,莲花街333号世纪联华4楼(古墩路口),120.09468251782394,30.272289356813264
B0FFLACQLG,501号台州海鲜餐厅(三墩店),4.6,0571-85788850;13336079008;13486114064,海鲜酒楼,50119,101,灯彩路549号欧路堡广场F1层,120.06523560229742,30.325389086339243
B023B1DRIB,王氏·只为那只蟹(城西旗舰店),4.3,0571-85352200;13968001699,海鲜酒楼,50119,,文一路177号,120.12863563166502,30.290217207410844
B0JDTZW4KA,德悦悦品海鲜姿造(文一路),4.7,0571-85269177;18768226604,海鲜酒楼,50119,235,文一西路益展商务大厦2楼208室,120.11225882634992,30.289055073319528
B0FFJER143,象山石浦海鲜城(杭大路店),4.6,0571-85125508;13958044715,海鲜酒楼,50119,134,杭大路1号黄龙世纪广场B座三楼,120.13566166854662,30.270301076868357
B0J2ZUBF2Q,东海渔宫·海鲜姿造(杭州首店),4.7,0571-64215668;0571-85263377,海鲜酒楼,50119,189,玉古路173号(近农业银行),120.12472524333849,30.271279185649263
B023B07VNL,温州炎亭海鲜阁(之江大楼店),4.6,0571-56834500,海鲜酒楼,50119,108,万塘路266号(华星时代广场后门),120.12006747565275,30.280251091683063
B0LRMHYBV7,温岭三门海鲜,4.5,0571-56579222;0571-56579333,海鲜酒楼,50119,78,三墩镇创美华彩中心9幢3楼,120.0640223658503,30.324940707438163
B0L10CD8NA,柴进海鲜坊百姓渔港2店加工,4.1,19357216718,海鲜酒楼,50119,95,万塘路630号2楼2-57号,120.11935526317704,30.289136442352564
B0M605MJ38,李百蟹·园林湖景蟹黄面(雷峰塔店),4.6,19012738697,海鲜酒楼,50119,67,"西湖街道南山路15号(湖景餐厅,距西湖10米,雷峰塔10米)",120.14307357143689,30.232550777221395
B0KUGUCBEF,大祥龙虾,4.4,18658110505,海鲜酒楼,50119,,双浦镇湖埠村张余87号,120.0391991102487,30.126291283099487
B0GKP7ZH96,北纬30度黄鱼面·海鲜餐厅(黄龙恒励大厦店),4.6,18506822500,海鲜酒楼,50119,82,黄龙路5号,120.13075122790029,30.27216385439777
B0K6N77QW4,海鲜汤皇(茶酒),3.9,18072921466,海鲜酒楼,50119,,紫荆花路276号,120.08783981339027,30.289887260405216
B0MBN6RQXP,游龙戏虾钓虾馆,4.4,18005819570,海鲜酒楼,50119,106,悦庄东门东北180米,120.08503111248896,30.269383166765
B0I0M52X33,神农甲·甲鱼大王(耀江文欣苑店),4.5,17767094327,海鲜酒楼,50119,105,文二路177号(文欣商务楼)团校对面,120.13304878010268,30.285305785001075
B0HRZDOJT5,三登客·江鲜馆,4.5,17357187008,海鲜酒楼,50119,104,三墩镇振中路9号,120.06896410116244,30.322264109207453
B0H1O1WWMC,501号台州海鲜餐厅(教工路店),4.6,17316933577,海鲜酒楼,50119,136,教工路立元大厦二层,120.13184430724282,30.279206693461695
B0JBCNHF46,家门口海鲜(岸芷汀兰宸院南区店),4.0,15968832576,海鲜酒楼,50119,,岸芷汀兰宸院南区东门旁,120.0756488951012,30.12025601443939
B0JUOOG7M6,衢味小炒小龙虾(之江之芯店),3.5,15858107654,海鲜酒楼,50119,36,之江之芯2栋一楼杭州银行旁边陈记大排档,120.09334479282826,30.16077796214278
B0J1OZEMQV,赶海姑娘小海鲜-刺身生腌生蚝,3.5,15502729707,海鲜酒楼,50119,50,揽翠巷104号(翠柏路地铁站A口步行340米),120.12701565365096,30.292479874618852
B0K0SX90GD,真鲜渔坊海鲜代加工海鲜面,4.1,15268590980,海鲜酒楼,50119,37,学院路77号黄龙国际中心F3层(文三路地铁站G口旁),120.12454627888665,30.27796433484336
B0KDKSLQFR,海隐·石浦海鲜·烧烤(黄龙体育中心店),4.3,15257176695,海鲜酒楼,50119,92,黄龙体育中心A3口,120.12752894664742,30.267608997114415
B0FFG1DFB0,西湖鱼小海鲜(断桥店),3.9,15068892928,海鲜酒楼,50119,139,保俶路108号,120.1443551699129,30.26751616642685
B0HRO7LQ7L,波哥私厨(合诚·之江商务中心店),4.6,13858007207,海鲜酒楼,50119,88,之江商务中心一号楼102室,120.06747492349625,30.143822532492084
B0L0ZBEGJX,斌小厨海鲜大排档,3.4,13666623740,海鲜酒楼,50119,86,益乐路与古荡前街交叉口东20米,120.11255455154618,30.274843733034636
B0FFL2UIDV,鼎顺海鲜私房菜,4.6,13588728388,海鲜酒楼,50119,150,紫荆花北路188号宝港生活广场1幢101、201,120.08884468026095,30.310394685941333
B0L317VU6G,有条璟鲤大排档·粤菜·海鲜(暂停营业),4.2,13314413107,海鲜酒楼,50119,78,三墩镇申花路798号1019室,120.08856165108152,30.308640958968073
B0KDDCCHE8,佩姐温岭海鲜(外东山弄店),4.2,13175830999,海鲜酒楼,50119,31,外东山弄与夕阳红路交叉口西北80米,120.12306138361947,30.26175609008334
B0M6L56H7E,旺角海鲜(五联西苑24小时便利店店),4.1,,海鲜酒楼,50119,119,文二西路西城广场-文新夜市1号,120.09141189248366,30.28219445348557
B0LDLLT916,赶海姑娘小海鲜,4.0,,海鲜酒楼,50119,63,万美商务中心4-109(霞鸣街地铁站C口步行200米),120.06579168956758,30.144661530347943
B0K0ZDTUYE,玉荟轩餐饮店,3.9,,海鲜酒楼,50119,190,西园九路与西园八路交叉口东北80米,120.05755884766981,30.320215709944186
B0LDYC1Y5U,望江门小龙虾(转塘店),3.6,,海鲜酒楼,50119,112,霞鸣街157号西北方向40米万美商务中心,120.06467129047229,30.145070932445023
B0L33M9K23,蟹友钳,3.6,,海鲜酒楼,50119,,三墩镇申花路357-3号-2,120.09805072065716,30.310040716332093
B0LG6OIFBL,温州海鲜(暂停营业),3.3,,海鲜酒楼,50119,129,章明巷与盛龙街交叉口西南80米,120.0885905476439,30.310064779554118
B0K1NGQ5L8,千岛湖有机鱼,3.3,,海鲜酒楼,50119,,天目山路327号合生国贸中心,120.09470010478398,30.265587969895872
B0LU61LJGZ,蟹状缘生腌蒸汽海鲜馆,3.2,,海鲜酒楼,50119,55,双龙街588号杭州西溪银泰城西区弘德路店B1层,120.06895647960137,30.294456481101605
B0L0AKAHSM,盱眙龙虾,3.2,,海鲜酒楼,50119,,江涵路166号群升·万国天地,120.09469409745131,30.159675028468513
B0L0TXCAPU,大头小海鲜,3.1,,海鲜酒楼,50119,,墩莳家园东门旁,120.06195646276663,30.340209363737557
B0K0UNSU13,澎湖岛海鲜餐厅,3.1,,海鲜酒楼,50119,,杜家浦路与东狮路交叉口西南80米,120.07758830938441,30.150965863927166
B0MBN6RIQF,鲜爆了小龙虾,2.6,,海鲜酒楼,50119,,西园路与振华路交叉口西北100米,120.06160886431428,30.315113281586274
B0M625WA50,鸢飞鱼跃(海鲜·水产·第二农贸店),2.4,,海鲜酒楼,50119,,灯彩街与墩池路交叉口西南60米,120.0802506229025,30.327419891460746
B0LKDLO4YY,蔡老板烤生蚝,2.2,,海鲜酒楼,50119,,小叔房村社区卫生服务站东南侧120米,120.13346712069874,30.115407344459296
B0L0V9JQBA,蟹无恙,2.1,,海鲜酒楼,50119,,霞鸣街157号西北方向40米万美商务中心,120.06471926393488,30.14504787143265
B0M6HB8IBN,汤之鲜贝壳小海鲜(三鼎农贸市场店),2.1,,海鲜酒楼,50119,,团南弄与团圆巷交叉口北80米,120.09431266276658,30.30179225630435
B0MBCROHU2,爱上蟹肉蟹煲,1.3,,海鲜酒楼,50119,,古墩路588号印象城(杭州古墩路店),120.0945073183025,30.296199899137395
B0MBNXUWZ0,启彬海鲜,0.9,,海鲜酒楼,50119,,莫文巷与文北巷交叉口东北140米,120.13934876832529,30.288733930117804
B0G2MKTUH4,素心素食(翠苑店),4.6,0571-87318898,中式素菜馆,50120,41,文一路294号2楼(汇合城东侧),120.11930503205582,30.290657229012723
B0IGBDL4T8,素春斋,4.6,0571-87096337;17767200073,中式素菜馆,50120,66,汪庄西通道与西湖景区环湖绿道交叉口东300米,120.144858557289,30.231912801217206
B0FFH5YWBW,大隐清心素食自助餐厅(隐市店),4.5,0571-85880333,中式素菜馆,50120,31,灵隐路38号隐市2楼,120.1021843806403,30.242896417546415
B023B1D11K,翠薇面斋,4.4,0571-85316603,中式素菜馆,50120,48,灵隐公园内,120.09956412850971,30.243164566655373
B0L39HSJYN,嗷i嗷酸奶碗,3.7,18989468335,中式素菜馆,50120,22,余杭塘路799号五洲国际广场1137-1142号,120.09131060450407,30.296392955586374
B0FFIIS5EU,食本·新素食(西溪银泰店),4.4,18167132067,中式素菜馆,50120,22,西溪银泰2-南306,120.06959722781863,30.29466976394261
B0KKZLUXZ3,轻卡小栈,4.2,17682153558,中式素菜馆,50120,,文三路408号中电·万谷,120.12167981072842,30.280719776659748
B0L1T54IC2,全真素食餐厅(灵隐店),4.4,15958171603,中式素菜馆,50120,54,天竺路235号,120.1017630998008,30.239831488055213
B0L0BDUHBM,低脂轻食(三墩店),3.8,,中式素菜馆,50120,44,同人精华大厦底40号(三坝地铁站B2口步行110米),120.09385398597436,30.30487488360785
B0LKNRQMOG,超模厨房(西溪店),3.8,,中式素菜馆,50120,30,蒋村街道西溪世纪中心1号楼133室-1,120.06650754165904,30.29470927145494
B0L01UGJDE,欢喜食集,3.5,,中式素菜馆,50120,,求是村教工食堂东侧13号,120.12349390488166,30.26674514922656
B0L0P50LZQ,蔬叔说SUSU中式健康厨房,3.4,,中式素菜馆,50120,,丰潭路601-7号,120.09851623230723,30.31009480660571
B0L0PA0AWX,春风花甲,3.1,,中式素菜馆,50120,19,留和路石马社区96号101,120.01832806787915,30.21191598185123
B0FFGINMJX,五芳斋餐饮(杭州西溪河下路店),4.4,19106568225;19157921305,清真菜馆,50121,18,西溪河下路19号,120.13673453809635,30.29287943032415
B0FFGHIBWH,伊味牛肉面(杭州西湖区),3.8,18509722966;18509728638,清真菜馆,50121,18,文二西路古墩路385-11号,120.09471963884423,30.283016312248073
B0FFF6TPKW,兰州拉面(文一西路店),3.9,18394200509;19550118879,清真菜馆,50121,11,文一西路398号,120.08843722820146,30.289247187823513
B0JR7M8Z1F,兰州牛肉面(杭荟城店),4.3,18357152052;18609306144,清真菜馆,50121,19,博美路与美院北街交叉口北60米,120.07073226274584,30.160841503004825
B0FFHSYF6R,西北拉面(崇义路店),3.6,18058415309;18089012229,清真菜馆,50121,14,崇义路81号,120.05715602601214,30.287471198511813
B0KGHSX0IH,西楼兰新疆抓饭(杭州店),4.5,17682402120;18069781688,清真菜馆,50121,59,文三路火炬大厦二号楼102-1,120.12940039193255,30.279055364824938
B0FFG2NOI0,中国兰州牛肉拉面(竞舟路店),3.8,15906613931;19374062977,清真菜馆,50121,18,竞舟路10-4号,120.10172436935318,30.271374879018072
B0FFFAK5Z4,西北面馆(西溪路店),3.5,15722310680;18658802440,清真菜馆,50121,20,西溪路76号,120.13719346130296,30.272382203771507
B0FFG4CW6G,中华牛肉面(学院路店),3.5,15658087720;18338386075;19243034467,清真菜馆,50121,18,学院路316号,120.1241398950548,30.295474029473027
B0JUPR3OTL,兰州牛肉面,3.4,15347445673;17086098890,清真菜馆,50121,19,康新商务大厦南门旁(文三路地铁站D3口步行480米),120.11550664220564,30.2782478698059
B0KGASREFK,西北郞中国兰州拉面之江银泰店,4.1,15309722122;18509722113,清真菜馆,50121,19,兰州拉面清真حلال宋城店,120.09654811841551,30.168992897801427
B0HDJZSX60,一碗兰兰州牛肉面(丰盛九玺店),4.0,15268844388;18858288229,清真菜馆,50121,19,紫宣路347号(池华街地铁站C口步行170米),120.06300651330028,30.330975237817643
B0JBA5C4JU,新疆麦麦提烤肉店(丰潭路店),3.9,15199855313;18971337994,清真菜馆,50121,62,众乐政苑农贸市场北门旁,120.10063560833765,30.299605601963716
B0IAV9M119,中国兰州拉麺,3.8,13909728615;15309757950;17357107505,清真菜馆,50121,18,汇峰国际D座东南门东70米,120.04635397044518,30.241537916750307
B0FFHGOC3I,中国蘭州拉面(立元商务楼店),3.6,13909723631;18509728638,清真菜馆,50121,22,西湖街道文三路235号(立元商务楼),120.13261420274114,30.279316768986067
B0JDOPGY29,中国兰州牛肉面(杭州数字信息产业园一期店),4.1,13897716155;15997009789,清真菜馆,50121,17,三墩镇西园八路11号2幢A座1楼111室,120.05637898691768,30.32026360459827
B0K6RDD5KU,穆嘉客兰州牛肉面(望月公寓店),3.8,13897282705;18894103180,清真菜馆,50121,24,紫荆花北路59号望月商铺69号,120.0864331043417,30.31253604337913
B0KBNPH6BV,西部飞哥兰州牛肉面圣苑北街店,4.0,13830127391;13993071785,清真菜馆,50121,20,圣苑北街8号(三坝地铁站B4口步行240米),120.09171305416136,30.306497754771783
B023B182Q5,中国兰州牛肉拉面,3.9,13739304635;18989849137,清真菜馆,50121,16,庆隆路26号,120.11821843559623,30.295483613456447
B0FFHU7UEQ,黄焖鸡米饭(紫润国际店),3.6,13735471191;18605641699,清真菜馆,50121,24,振华路189号紫润国际F1层,120.07166870519012,30.317031986242736
B0FFKPDCTL,兰州纯汤牛肉面,3.8,13732262039;17682489788,清真菜馆,50121,18,三墩镇灯彩街567号创美华彩国际8幢1层,120.06476791187406,30.32493674127283
B0KD1PFV01,兰州拉面(龙章路店),4.1,13666639400;17300932522,清真菜馆,50121,11,蒋村街道龙章路20号文溪中学对面,120.05326846428248,30.28332716874834
B0IAAM2HVB,中国兰州经典牛肉面(之江店),4.0,13629568840;19912482462,清真菜馆,50121,17,转塘街道东泽江芯大厦105室,120.09343792914862,30.16012198217542
B023B07GF7,兰州拉面(晴川街店),3.7,13486170677;13777385220,清真菜馆,50121,18,晴川街400号,120.05989969267704,30.286045104357232
B0HAVH8B88,雪花牛肉面,3.8,13396507237;13909721914,清真菜馆,50121,15,莲花街25号(古荡新村地铁站A口步行430米),120.1055973599619,30.274811229719774
B0H1MRYNMG,兰州拉面(和昌·云潮店),4.0,13389302924;15025909427,清真菜馆,50121,20,转塘街道之浦路和钱塘路交叉路口云潮美誉商户中心1号楼,120.10435842050893,30.170787167725226
B0IRNZV07O,新疆美食烧烤餐吧(迪哒尔2号店),4.5,13336176015;13656710844,清真菜馆,50121,60,古荆弄76号(天目里店),120.09430737198669,30.269937558396393
B0J3ZARF5I,喜兰客兰州牛肉面(中天MCC1号楼店),4.3,13336148895;18413259806,清真菜馆,50121,16,西斗门7号一客一食烤鱼店楼下,120.11088204790104,30.293905526368317
B0H0U1R0WC,中国兰州拉面(文二路店),3.7,13282432872;15198960630,清真菜馆,50121,26,文二路211号(下宁桥地铁站B口步行260米),120.13144882797089,30.285218535587326
B0JULUKRK0,兰州牛肉面(杭州总店),3.8,13282132076;18817212076,清真菜馆,50121,14,绿城西溪世纪中心6期114兰州牛肉面,120.06729510415532,30.295366263714982
B0FFG97EH1,伊味牛肉面,3.6,13119705463;18361339949,清真菜馆,50121,23,西园路3号浙大森林F1层,120.05856267058365,30.311508243080695
B0FFG2T1CD,西北牛肉面(余杭塘路店),4.4,13067858403;13291816693,清真菜馆,50121,14,余杭塘路822号,120.08895085290695,30.297449183883145
B0FFF6B1QV,兰州牛肉拉面(文一西路),3.6,0571-88913052,清真菜馆,50121,24,文一西路91号,120.10502629288455,30.28944646910554
B023B09VU5,浙江大学玉泉校区民族餐厅,4.3,0571-87951896,清真菜馆,50121,12,灵隐街道浙大路38号浙江大学玉泉校区三食堂2层,120.12040112695831,30.26890452408244
B0FFHSJON4,东方宫中国兰州牛肉拉面(晶信大厦店),4.5,0571-87388829,清真菜馆,50121,32,文三路345号(文三路地铁站A口步行270米),120.12837495715065,30.279090007687635
B023B087AC,兰州拉面曙光路店,3.9,0571-85124095,清真菜馆,50121,18,曙光路5-1号,120.1422873307857,30.269301574804622
B0FFGE0ASK,萨娜餐厅(石马社区店),4.4,0571-81113992;13516716518,清真菜馆,50121,68,石马社区(小和山地铁站A口步行440米),120.0181993170731,30.212558309865408
B0JUUXVISX,新疆阿西木烧烤(金街美地店),4.4,19957147181,清真菜馆,50121,61,金街美地3号楼134号,120.07308765024085,30.14988054785918
B0K3C5I8O9,熊野中华豚骨拉面,4.5,19517916364,清真菜馆,50121,48,绿城西溪世纪中心1期(蒋村地铁站E口步行480米),120.06732612434917,30.294961272248397
B0FFG8EBPA,兰州牛肉面,3.7,19269300207,清真菜馆,50121,21,留下街道东岳社区马家坞4号101室,120.09518808213535,30.259521528550234
B0L2PYQLP4,清真.迪拜主题风味餐厅(赤山埠停车场店),3.8,19106737496,清真菜馆,50121,46,三台山路与虎跑路交叉口西100米,120.13266377637967,30.226534094275586
B0LGRMBU5Y,马记永·兰州牛肉面(杭州教工路EAC店),4.5,18974669467,清真菜馆,50121,32,世贸丽晶城欧美中心1号楼113室-2,120.13212225348916,30.276119384777022
B0MBPC1S2H,西北小馆(文三路店),3.7,18969948600,清真菜馆,50121,25,古翠路与文三路交叉口东南20米,120.11529422980894,30.278404666422247
B0JDCSWVEY,兰州牛肉拉面(断桥店),4.3,18969093203,清真菜馆,50121,17,保俶路43-4号,120.14674907377125,30.264970457652474
B0KRMCT317,品回味清真西北菜(宋城店),4.6,18966167706,清真菜馆,50121,85,珊瑚沙路49号银泰百货(杭州之江店),120.09826187516722,30.1697851619807
B0H1MR035S,中国兰州拉面(杨梅山路店),4.2,18897227519,清真菜馆,50121,24,留下街道杨梅山路363号,120.05494374507882,30.23489238633138
B0I6DHXOZ9,清真西北牛肉面(锋尚路店),3.4,18858121325,清真菜馆,50121,17,文三西路499号锋尚路7号,120.08723657894562,30.276859744345103
B0KRNAHM7N,金坊裕·兰州牛肉面(西投银泰城店),4.3,18809721245,清真菜馆,50121,19,梧桐支路9号西投银泰·云潮中心,120.1007445184988,30.14913543964215
B0JDLKNBJA,新疆正宗羊肉烧烤,4.1,18799377979,清真菜馆,50121,,清池路与灯彩街交叉口南180米,120.06601628238633,30.324125285401742
B0JAPC0RT7,新疆比拉力餐厅,4.3,18780222269,清真菜馆,50121,75,转塘街道美院南街89号一号楼A1商铺,120.07375326308195,30.15323585706845
B0I2LSWZWC,新疆兄弟烧烤(文一路店),4.0,18757124445,清真菜馆,50121,94,翠苑街道文一路272号宋江综合楼一楼105,120.12047145275045,30.290393471724066
B0IGP7K8MH,伊京轩兰州牛肉面·清真(西溪天街店),3.9,18697227168,清真菜馆,50121,27,蒋村龙湖西溪天街1幢号107室,120.06340729570829,30.2952721533619
B0FFHMPSHL,中国兰州牛肉拉面,4.4,18697225454,清真菜馆,50121,23,紫荆花北路179号,120.0859586340126,30.315243857117267
B0FFL1WOKJ,新疆买买提烤羊肉串(转塘店),4.4,18671727915,清真菜馆,50121,83,"转塘街道,美院南街89号2楼美食城240号",120.07287544591625,30.15272666402165
B0FFLA05P2,伊北味·清真青海拉面村(黄龙店),4.4,18609798323,清真菜馆,50121,24,黄龙路2号(黄龙洞地铁站B口步行330米),120.13244775173418,30.26791361116497
B0I3SCYK2S,劲麦·兰州纯汤牛肉面,3.9,18609722827,清真菜馆,50121,20,影业路九莲新村一幢底(文三路地铁站A口步行340米),120.12869260272944,30.280322301904757
B0LAK6CZ8A,清真穆蓝兰州牛肉面(杭州之江店),4.2,18609722664,清真菜馆,50121,26,CO理想城11号楼外围,120.10198187972708,30.175003035716742
B0H1U91K6U,兰州牛肉面(之江富城店),3.9,18609722664,清真菜馆,50121,14,中融理想城11幢16号(霞鸣街地铁站C口步行390米),120.06712721756209,30.14225897800446
B0FFFYU6AD,中国兰州拉面,3.7,18609720270,清真菜馆,50121,15,轮渡路一百零六号,120.1239591192152,30.122201747177492
B0LA4C8MFO,马格的如兰州牛肉面(西溪银泰城西区店),4.1,18609303523,清真菜馆,50121,25,双龙街西溪银泰城2号楼南楼一层108室,120.0694063220243,30.294356003267108
B0FFFE9ZOQ,伊疆南兰州牛肉面(留下店),3.9,18609301114,清真菜馆,50121,13,杭州市留和路135号4幢4号伊疆南兰州牛肉面,120.04472119775404,30.23195494681724
B0H37CBYXS,穆百顺兰州牛肉面(大清谷店),4.2,18589888225,清真菜馆,50121,21,转塘街道叶埠桥东山里12-2,120.06414276408547,30.17859755077017
B0HACHW84F,兰溪牛肉面(奥莱金街店),4.0,18558426146,清真菜馆,50121,25,霞鸣街250号,120.065184894783,30.146208249036547
B0HUBZCKHZ,兰州牛肉拉面(保业路店),4.2,18557537774,清真菜馆,50121,16,杭州市保业路63号(翠柏路地铁站A口步行380米),120.12739752207136,30.29267433916848
B0J6M7O5AV,清真小吃店,3.9,18509721211,清真菜馆,50121,26,良户家苑西门南120米,120.0917429836645,30.131162790683213
B0JDR7JET2,穆清园兰州牛肉面,3.9,18393904522,清真菜馆,50121,22,留下街道景顺铂悦城2幢61号,120.044069428738,30.22916349934084
B0J3KAMH0L,清真·优素福牛肉面环城西路店(清真餐厅),4.1,18267173442,清真菜馆,50121,24,环城59号优素福牛肉面(武林门地铁站E口步行120米),120.14999156486085,30.27365131055669
B0J6GHJUEE,新疆新鲜羊肉烤肉店,4.3,18197771419,清真菜馆,50121,47,三墩镇紫萱路364号(池华街地铁站B口步行70米),120.06455546403551,30.331657093098098
B0JBS7S99I,兰州牛肉面(岸芷汀兰宸院北区店),4.1,18070455541,清真菜馆,50121,20,铜鉴湖路251号,120.0723522059418,30.121407868993504
B0K39R8AXH,西域美食(星光城店),3.6,17789990102,清真菜馆,50121,27,翠苑街道文三路500号(星光城)9幢1层18号,120.11629504689479,30.279340474363178
B0I3JM7XLP,中国兰州牛肉面(联合大厦店),4.2,17744802303,清真菜馆,50121,17,联合大厦北门东南50米,120.09300729376905,30.269150619749098
B0I30ON2JU,西北牛肉面(亚厦中心店),4.0,17693339552,清真菜馆,50121,24,沙秀路99号亚厦中心,120.10283311746811,30.173495415308572
B0J1T7I0YD,伊鼎味·兰州牛肉面(西湖店),4.4,17693319333,清真菜馆,50121,29,保俶路与昭庆寺里街交叉口北40米,120.14915203239954,30.26327277722073
B0LBKC1Z95,兰州拉面(奥莱金街店),4.1,17621802559,清真菜馆,50121,29,转塘街道奥莱金街4号楼底商96号商铺,120.06627027091774,30.146618893561087
B0FFLB7SCE,伊香味牛肉面(之江新天地南区店),4.1,17605815377,清真菜馆,50121,23,转塘街道钱江浮山商业中心4幢2层商铺207号,120.0823798649123,30.131219452441947
B0JAO713AN,伊兰穆·兰州牛肉面(瑞祺大厦店),4.0,17593083927,清真菜馆,50121,27,莫干山路423瑞祺大厦F1层,120.1422176355118,30.287190709312696
B0H1MR09EZ,高原麦牛肉面(云栖店),4.1,17521008127,清真菜馆,50121,29,转塘街道云梦路1号1幢114室,120.07543988853682,30.132231949027208
B0FFKAD8PU,清真蘭州拉面(三墩店),3.9,17509306663,清真菜馆,50121,16,三墩镇紫金港弯东区商铺5号,120.07927807684311,30.331836876394814
B0IGGUYK4I,清真河南烩面,4.1,17503940522,清真菜馆,50121,24,华联公园西200米,120.03387297370394,30.348479972479172
B023B159EV,中国兰州拉面,4.1,17321219661,清真菜馆,50121,18,古荡新村西屋26幢101室,120.11102661733625,30.278307248520477
B0JG3DVHIX,北味淳兰州牛肉面(之江印店),3.9,17316067213,清真菜馆,50121,18,康迪新座之江印,120.09272404844643,30.151552245212354
B0I3OH48YA,新疆帕米尔餐厅.烧烤(龙湖杭州西溪天街店),4.4,16699138111,清真菜馆,50121,48,西溪天街4幢104室(蒋村地铁站出入口步行330米),120.06376209130715,30.29496771453821
B0J35AV3JI,清真穆真牛肉面(蒋村花园店),3.9,16697020304,清真菜馆,50121,29,晴川街44号,120.07671575356399,30.286329183516752
B0JAPA6FL5,青海牛肉拉面,4.0,15906699420,清真菜馆,50121,14,浙大路30-6号,120.1219187845829,30.263407659328788
B0KD74BWGW,伊鼎味兰州牛肉面(光阳大厦店),4.0,15869170107,清真菜馆,50121,23,洙泗路与丽景路交叉口西南100米,120.08011136044352,30.165863763078058
B0FFKB2YYC,中国兰州牛肉拉面(丰盛九玺店),4.0,15825501788,清真菜馆,50121,27,三墩镇紫宣路丰盛九玺东区368号兰州拉面,120.06447949917356,30.33178217369107
B0JGU1EXW9,兰州牛肉拉面(转江街店),3.8,15693043021,清真菜馆,50121,21,转江街与象山路交叉口西40米,120.06628500640753,30.161419451328314
B0I1CP5EWW,兰州招牌牛肉面(紫金港路店),3.6,15609402184,清真菜馆,50121,14,登新公寓商铺74、75号,120.08322133532666,30.281786726384382
B0FFJUFAR4,金鼎牛肉面,4.1,15597217002,清真菜馆,50121,20,转塘街道云计算产业园金鼎牛肉面,120.07956876548602,30.136406908051793
B0G1RM136M,西域美食,4.0,15557103857,清真菜馆,50121,22,百家园路61号,120.05584432101313,30.25233557799987
B0J67NQ5MH,兰州牛肉拉面(西溪壹号店),4.2,15509720955,清真菜馆,50121,20,文二西路808号西溪壹号,120.06442561604189,30.283968015270933
B0LDC5SYI2,穆塞德兰州牛肉面,4.1,15509700352,清真菜馆,50121,19,紫宣路18号西投绿城·浙谷深蓝中心F1层,120.07155400089052,30.313901494694285
B0J35XVKZZ,伊北味·清真青海拉面村(玉古路店),4.3,15500652992,清真菜馆,50121,29,玉古路188号现代国际大厦F1层,120.12564113845956,30.273218113429717
B0K6BUGU30,伊北味·清真青海拉面村(天目山路店),4.2,15500652992,清真菜馆,50121,25,武林花园南门东南100米,120.14582469241446,30.274322019356266
B0L6NDTS86,马记永·兰州牛肉面(龙湖杭州紫荆天街店),4.3,15316715173,清真菜馆,50121,28,三墩镇古墩路1009号龙湖杭州紫荆天街B1层B1-18,120.0866493268535,30.32296263854817
B0G3DM0PLZ,中国兰州精品牛肉面(世纪新城店),3.8,15309308823,清真菜馆,50121,25,古荡街道通普路9号精品牛肉拉面,120.11224913151494,30.28526146222649
B0FFL25XLH,中国兰州拉面(云溪印象店),3.8,15297296228,清真菜馆,50121,17,云溪印象创意园3幢,120.06720254359018,30.149779695764447
B0M6UHPOWE,辣子王兰州牛肉面(杭州阿里云谷店),3.6,15209304494,清真菜馆,50121,18,荆大路与方油段交叉口东南280米,120.02970255176356,30.321786230631403
B0J3MXLVYR,清穆斋兰州牛肉面(紫荆天街店),3.7,15168295770,清真菜馆,50121,15,紫荆花北路478号(三墩地铁站B口步行410米),120.08558480534575,30.322836002129183
B0M60GLDJM,清真.迪拜阿拉伯餐厅.新疆烤肉(三台山店),4.0,15120535853,清真菜馆,50121,131,三台山路与虎跑路交叉口西60米,120.13313793321524,30.226829752676903
B0LD7C3VIV,兰州牛肉面(田旺里店),4.2,15111723441,清真菜馆,50121,19,云栖小镇转塘经济区块3-1号青和公寓,120.07834770802954,30.135201727196286
B0L32A2XG5,问疆新疆手抓饭(奥莱金街店),4.5,15088606312,清真菜馆,50121,44,奥莱金街4号楼霞鸣街240号问疆新疆手抓饭(九十八烤鱼旁),120.06543577238475,30.14598493937279
B0J3JX3NQZ,牛兰鼎兰州牛肉面(学院路店),3.7,15067143346,清真菜馆,50121,27,学院路170号(学院路地铁站B1口旁),120.12482925600415,30.285696896001248
B0GKUUIXBI,中国兰州拉面(云潮美誉商务中心店),3.9,15025909427,清真菜馆,50121,20,转塘街道和昌云潮商务中心一幢103室,120.10438846209459,30.170791181443793
B0FFHLJON7,中国蘭州牛肉拉面(教工路店),3.9,13968041422,清真菜馆,50121,21,文二路跟教工路交叉口教工路180号,120.13101269111338,30.28605584517458
B0KGHZWD5N,牛兰鼎兰州牛肉面(第二分店),3.7,13897689517,清真菜馆,50121,18,三坝雅苑东北2门旁,120.09586661605303,30.307970636740745
B023B07VZI,中国兰州拉面(竞舟路店),4.2,13897495903,清真菜馆,50121,23,文三西路竞舟路沁雅花园旁46号,120.10072665690632,30.276848027879783
B0I0GN4FOR,青海牛肉拉面(西城博司店),3.4,13897336278,清真菜馆,50121,35,三墩镇紫萱路158号5-1,120.06986008550112,30.318697610543943
B0FFHJT4D4,伊兰牛肉面(文一西路店),4.1,13897226411,清真菜馆,50121,17,文一西路315号骆家庄农贸市场综合楼13,120.09543784564471,30.288611783411053
B0JBAA880K,东穆兰兰州牛肉面(剑桥公社店),3.7,13738182217,清真菜馆,50121,23,剑桥公社785-102,120.08962039239532,30.308037827549885
B0JUFZQNVJ,辣子王兰州牛肉面(西湖店),4.4,13634111494,清真菜馆,50121,22,玉古路149号,120.12196074688174,30.264910573697698
B0FFG9VNLM,大美乐抓饭(华星路店),4.7,13588818306,清真菜馆,50121,39,华星路210号嘉绿苑北6幢,120.11192189535716,30.281333611561433
B0FFFUXOSE,青海拉面(城西莲花店),3.7,13486103828,清真菜馆,50121,17,莲花街225号西荡苑·桃苑,120.09809192228549,30.27298072381506
B0HBKCQTW2,疆里疆外抓饭(龙湖杭州西溪天街店),4.6,13372508551,清真菜馆,50121,40,余杭塘路1001号龙湖杭州西溪天街4号楼106号,120.06386802245532,30.294982572876343
